[{"LATITUD": "40.33267", "PROVINCIA": "AVILA", "COMUNIDAD": "CASTILLA Y LEON", "LONGITUD": "-5.645258", "IDPIF": "2003050106", "FECHA": "2003-08-03", "TIME_EXT": "20490", "PESADOS": "18", "GASTOS_EXT": "0", "TIME_CTRL": "4425", "PERSONAL": "347", "SUPQUEMADA": "6275.0", "HERIDOS": "1", "IDGRUPOCAUSA": "4", "COMARCA": "EL BARCO DE AVILA", "CAUSA": "Vandalismo", "MUERTOS": "0", "PERDIDAS": "753719", "MUNICIPIO": "SOLANA DE \u00c3\ufffdVILA", "AEREOS": "15"}, {"LATITUD": "42.217616", "PROVINCIA": "ZAMORA", "COMUNIDAD": "CASTILLA Y LEON", "LONGITUD": "-6.736336", "IDPIF": "2005490807", "FECHA": "2005-10-01", "TIME_EXT": "14970", "PESADOS": "4", "GASTOS_EXT": "41779", "TIME_CTRL": "14190", "PERSONAL": "33", "SUPQUEMADA": "4650.0", "HERIDOS": "0", "IDGRUPOCAUSA": "4", "COMARCA": "EL PUENTE", "CAUSA": "Sin datos", "MUERTOS": "0", "PERDIDAS": "0", "MUNICIPIO": "PORTO", "AEREOS": "9"}, {"LATITUD": "40.232547", "PROVINCIA": "AVILA", "COMUNIDAD": "CASTILLA Y LEON", "LONGITUD": "-5.067824", "IDPIF": "2009050152", "FECHA": "2009-07-28", "TIME_EXT": "40659", "PESADOS": "85", "GASTOS_EXT": "0", "TIME_CTRL": "8409", "PERSONAL": "832", "SUPQUEMADA": "4031.18", "HERIDOS": "1", "IDGRUPOCAUSA": "4", "COMARCA": "ARENAS DE SAN PEDRO", "CAUSA": "Sin datos", "MUERTOS": "1", "PERDIDAS": "0", "MUNICIPIO": "ARENAS DE SAN PEDRO", "AEREOS": "44"}, {"LATITUD": "42.382877", "PROVINCIA": "LEON", "COMUNIDAD": "CASTILLA Y LEON", "LONGITUD": "-6.671312", "IDPIF": "2005240664", "FECHA": "2005-08-03", "TIME_EXT": "9012", "PESADOS": "49", "GASTOS_EXT": "0", "TIME_CTRL": "7420", "PERSONAL": "453", "SUPQUEMADA": "3290.0", "HERIDOS": "1", "IDGRUPOCAUSA": "4", "COMARCA": "TRUCHAS", "CAUSA": "Sin datos", "MUERTOS": "0", "PERDIDAS": "0", "MUNICIPIO": "BENUZA", "AEREOS": "43"}, {"LATITUD": "42.220545", "PROVINCIA": "ZAMORA", "COMUNIDAD": "CASTILLA Y LEON", "LONGITUD": "-6.773729", "IDPIF": "2005490795", "FECHA": "2005-09-26", "TIME_EXT": "21790", "PESADOS": "1", "GASTOS_EXT": "349", "TIME_CTRL": "18850", "PERSONAL": "28", "SUPQUEMADA": "3006.14", "HERIDOS": "0", "IDGRUPOCAUSA": "4", "COMARCA": "EL PUENTE", "CAUSA": "Provocados por pastores y ganaderos para regenerar el pasto", "MUERTOS": "0", "PERDIDAS": "0", "MUNICIPIO": "PORTO", "AEREOS": "6"}, {"LATITUD": "40.37167", "PROVINCIA": "SALAMANCA", "COMUNIDAD": "CASTILLA Y LEON", "LONGITUD": "-5.592903", "IDPIF": "2003370098", "FECHA": "2003-08-04", "TIME_EXT": "0", "PESADOS": "4", "GASTOS_EXT": "0", "TIME_CTRL": "0", "PERSONAL": "32", "SUPQUEMADA": "2849.0", "HERIDOS": "0", "IDGRUPOCAUSA": "4", "COMARCA": "GUIJUELO", "CAUSA": "Vandalismo", "MUERTOS": "0", "PERDIDAS": "3269788", "MUNICIPIO": "OTRA PROVINCIA", "AEREOS": "1"}, {"LATITUD": "40.457541", "PROVINCIA": "SALAMANCA", "COMUNIDAD": "CASTILLA Y LEON", "LONGITUD": "-6.415577", "IDPIF": "2003370144", "FECHA": "2003-08-13", "TIME_EXT": "4725", "PESADOS": "18", "GASTOS_EXT": "0", "TIME_CTRL": "885", "PERSONAL": "177", "SUPQUEMADA": "2401.93", "HERIDOS": "1", "IDGRUPOCAUSA": "4", "COMARCA": "ROBLEDA", "CAUSA": "Sin datos", "MUERTOS": "0", "PERDIDAS": "5212583", "MUNICIPIO": "AGALLAS", "AEREOS": "14"}, {"LATITUD": "42.871914", "PROVINCIA": "LEON", "COMUNIDAD": "CASTILLA Y LEON", "LONGITUD": "-6.613227", "IDPIF": "2009240694", "FECHA": "2009-09-10", "TIME_EXT": "8059", "PESADOS": "11", "GASTOS_EXT": "0", "TIME_CTRL": "7203", "PERSONAL": "234", "SUPQUEMADA": "2301.3", "HERIDOS": "0", "IDGRUPOCAUSA": "4", "COMARCA": "VEGA DE ESPINAREDA", "CAUSA": "Provocados por cazadores para facilitar la caza", "MUERTOS": "0", "PERDIDAS": "0", "MUNICIPIO": "PERANZANES", "AEREOS": "20"}, {"LATITUD": "41.069892", "PROVINCIA": "SALAMANCA", "COMUNIDAD": "CASTILLA Y LEON", "LONGITUD": "-6.661902", "IDPIF": "2001370073", "FECHA": "2001-07-31", "TIME_EXT": "0", "PESADOS": "16", "GASTOS_EXT": "0", "TIME_CTRL": "0", "PERSONAL": "258", "SUPQUEMADA": "2146.0", "HERIDOS": "1", "IDGRUPOCAUSA": "4", "COMARCA": "VITIGUDINO", "CAUSA": "Sin datos", "MUERTOS": "0", "PERDIDAS": "172475", "MUNICIPIO": "BARRUECOPARDO", "AEREOS": "4"}, {"LATITUD": "40.614263", "PROVINCIA": "SALAMANCA", "COMUNIDAD": "CASTILLA Y LEON", "LONGITUD": "-5.956284", "IDPIF": "2003370096", "FECHA": "2003-08-03", "TIME_EXT": "3080", "PESADOS": "15", "GASTOS_EXT": "0", "TIME_CTRL": "470", "PERSONAL": "273", "SUPQUEMADA": "1804.37", "HERIDOS": "0", "IDGRUPOCAUSA": "2", "COMARCA": "LA ALBERCA", "CAUSA": "OTRAS NEGLIGENCIAS (SIN ESPECIFICAR)", "MUERTOS": "0", "PERDIDAS": "94927", "MUNICIPIO": "ESCURIAL DE LA SIERRA", "AEREOS": "5"}, {"LATITUD": "42.159817", "PROVINCIA": "ZAMORA", "COMUNIDAD": "CASTILLA Y LEON", "LONGITUD": "-6.844835", "IDPIF": "2001490406", "FECHA": "2001-12-16", "TIME_EXT": "3900", "PESADOS": "0", "GASTOS_EXT": "0", "TIME_CTRL": "3000", "PERSONAL": "33", "SUPQUEMADA": "1460.0", "HERIDOS": "0", "IDGRUPOCAUSA": "4", "COMARCA": "EL PUENTE", "CAUSA": "Provocados por cazadores para facilitar la caza", "MUERTOS": "0", "PERDIDAS": "0", "MUNICIPIO": "PORTO", "AEREOS": "1"}, {"LATITUD": "41.069892", "PROVINCIA": "SALAMANCA", "COMUNIDAD": "CASTILLA Y LEON", "LONGITUD": "-6.661902", "IDPIF": "2001370085", "FECHA": "2001-08-07", "TIME_EXT": "3270", "PESADOS": "22", "GASTOS_EXT": "0", "TIME_CTRL": "1680", "PERSONAL": "364", "SUPQUEMADA": "1450.0", "HERIDOS": "0", "IDGRUPOCAUSA": "4", "COMARCA": "VITIGUDINO", "CAUSA": "Sin datos", "MUERTOS": "0", "PERDIDAS": "423419", "MUNICIPIO": "BARRUECOPARDO", "AEREOS": "5"}, {"LATITUD": "41.822229", "PROVINCIA": "ZAMORA", "COMUNIDAD": "CASTILLA Y LEON", "LONGITUD": "-6.543943", "IDPIF": "2002490316", "FECHA": "2002-08-16", "TIME_EXT": "3780", "PESADOS": "21", "GASTOS_EXT": "0", "TIME_CTRL": "1080", "PERSONAL": "153", "SUPQUEMADA": "1418.23", "HERIDOS": "0", "IDGRUPOCAUSA": "4", "COMARCA": "ALCA\u00c3\u2018ICES", "CAUSA": "Sin datos", "MUERTOS": "0", "PERDIDAS": "1010768", "MUNICIPIO": "PORTUGAL", "AEREOS": "22"}, {"LATITUD": "40.528868", "PROVINCIA": "SALAMANCA", "COMUNIDAD": "CASTILLA Y LEON", "LONGITUD": "-5.98566", "IDPIF": "2005370293", "FECHA": "2005-06-18", "TIME_EXT": "7320", "PESADOS": "22", "GASTOS_EXT": "0", "TIME_CTRL": "361", "PERSONAL": "430", "SUPQUEMADA": "1280.35", "HERIDOS": "0", "IDGRUPOCAUSA": "1", "COMARCA": "LA ALBERCA", "CAUSA": "RAYO", "MUERTOS": "0", "PERDIDAS": "2022571", "MUNICIPIO": "CILLEROS DE LA BASTIDA", "AEREOS": "9"}, {"LATITUD": "41.774013", "PROVINCIA": "ZAMORA", "COMUNIDAD": "CASTILLA Y LEON", "LONGITUD": "-6.507694", "IDPIF": "2005490628", "FECHA": "2005-07-16", "TIME_EXT": "5850", "PESADOS": "20", "GASTOS_EXT": "60444", "TIME_CTRL": "3150", "PERSONAL": "148", "SUPQUEMADA": "1167.8", "HERIDOS": "10", "IDGRUPOCAUSA": "3", "COMARCA": "ALCA\u00c3\u2018ICES", "CAUSA": "MOTORES Y M\u00c3\ufffdQUINAS (SIN ESPECIFICAR)", "MUERTOS": "0", "PERDIDAS": "0", "MUNICIPIO": "TRABAZOS", "AEREOS": "13"}, {"LATITUD": "40.605961", "PROVINCIA": "AVILA", "COMUNIDAD": "CASTILLA Y LEON", "LONGITUD": "-4.608541", "IDPIF": "2006050124", "FECHA": "2006-09-03", "TIME_EXT": "3290", "PESADOS": "13", "GASTOS_EXT": "0", "TIME_CTRL": "490", "PERSONAL": "122", "SUPQUEMADA": "1130.21", "HERIDOS": "0", "IDGRUPOCAUSA": "4", "COMARCA": "AVILA", "CAUSA": "Provocados por pastores y ganaderos para regenerar el pasto", "MUERTOS": "0", "PERDIDAS": "0", "MUNICIPIO": "TORNADIZOS DE AVILA", "AEREOS": "11"}, {"LATITUD": "41.627396", "PROVINCIA": "ZAMORA", "COMUNIDAD": "CASTILLA Y LEON", "LONGITUD": "-6.18686", "IDPIF": "2004490374", "FECHA": "2004-07-17", "TIME_EXT": "9825", "PESADOS": "12", "GASTOS_EXT": "0", "TIME_CTRL": "495", "PERSONAL": "104", "SUPQUEMADA": "1080.0", "HERIDOS": "0", "IDGRUPOCAUSA": "6", "COMARCA": "ALCA\u00c3\u2018ICES", "CAUSA": "INCENDIO REPRODUCIDO", "MUERTOS": "0", "PERDIDAS": "271276", "MUNICIPIO": "FONFRIA", "AEREOS": "13"}, {"LATITUD": "42.593025", "PROVINCIA": "LEON", "COMUNIDAD": "CASTILLA Y LEON", "LONGITUD": "-6.947215", "IDPIF": "2010240126", "FECHA": "2010-08-08", "TIME_EXT": "13215", "PESADOS": "7", "GASTOS_EXT": "0", "TIME_CTRL": "10264", "PERSONAL": "127", "SUPQUEMADA": "1077.66", "HERIDOS": "0", "IDGRUPOCAUSA": "4", "COMARCA": "VILLAFRANCA", "CAUSA": "Provocados por campesinos para eliminar matorral y residuos agr\u00c3\u00adcolas", "MUERTOS": "0", "PERDIDAS": "0", "MUNICIPIO": "BARJAS", "AEREOS": "10"}, {"LATITUD": "40.460138", "PROVINCIA": "SALAMANCA", "COMUNIDAD": "CASTILLA Y LEON", "LONGITUD": "-6.362685", "IDPIF": "2005370407", "FECHA": "2005-08-31", "TIME_EXT": "2465", "PESADOS": "24", "GASTOS_EXT": "0", "TIME_CTRL": "1030", "PERSONAL": "157", "SUPQUEMADA": "1050.0", "HERIDOS": "0", "IDGRUPOCAUSA": "4", "COMARCA": "ROBLEDA", "CAUSA": "Sin datos", "MUERTOS": "0", "PERDIDAS": "612549", "MUNICIPIO": "SERRADILLA DEL LLANO", "AEREOS": "15"}, {"LATITUD": "41.976776", "PROVINCIA": "ZAMORA", "COMUNIDAD": "CASTILLA Y LEON", "LONGITUD": "-6.716454", "IDPIF": "2005490366", "FECHA": "2005-03-13", "TIME_EXT": "1725", "PESADOS": "5", "GASTOS_EXT": "8893", "TIME_CTRL": "1095", "PERSONAL": "58", "SUPQUEMADA": "1020.0", "HERIDOS": "0", "IDGRUPOCAUSA": "4", "COMARCA": "PUEBLA DE SANABRIA", "CAUSA": "Provocados por campesinos para eliminar matorral y residuos agr\u00c3\u00adcolas", "MUERTOS": "0", "PERDIDAS": "0", "MUNICIPIO": "PEDRALBA DE LA PRADERIA", "AEREOS": "6"}, {"LATITUD": "40.673691", "PROVINCIA": "AVILA", "COMUNIDAD": "CASTILLA Y LEON", "LONGITUD": "-4.493485", "IDPIF": "2006050125", "FECHA": "2006-09-03", "TIME_EXT": "9010", "PESADOS": "10", "GASTOS_EXT": "0", "TIME_CTRL": "370", "PERSONAL": "125", "SUPQUEMADA": "1016.77", "HERIDOS": "0", "IDGRUPOCAUSA": "4", "COMARCA": "AVILA", "CAUSA": "Provocados por venganzas", "MUERTOS": "0", "PERDIDAS": "0", "MUNICIPIO": "AVILA", "AEREOS": "13"}, {"LATITUD": "42.30988", "PROVINCIA": "LEON", "COMUNIDAD": "CASTILLA Y LEON", "LONGITUD": "-6.692816", "IDPIF": "2010240181", "FECHA": "2010-08-24", "TIME_EXT": "6070", "PESADOS": "7", "GASTOS_EXT": "0", "TIME_CTRL": "1909", "PERSONAL": "216", "SUPQUEMADA": "990.0", "HERIDOS": "0", "IDGRUPOCAUSA": "4", "COMARCA": "TRUCHAS", "CAUSA": "Sin datos", "MUERTOS": "0", "PERDIDAS": "0", "MUNICIPIO": "BENUZA", "AEREOS": "8"}, {"LATITUD": "41.268751", "PROVINCIA": "SALAMANCA", "COMUNIDAD": "CASTILLA Y LEON", "LONGITUD": "-6.453217", "IDPIF": "2010370111", "FECHA": "2010-07-30", "TIME_EXT": "9165", "PESADOS": "18", "GASTOS_EXT": "0", "TIME_CTRL": "4905", "PERSONAL": "139", "SUPQUEMADA": "982.53", "HERIDOS": "2", "IDGRUPOCAUSA": "4", "COMARCA": "VITIGUDINO", "CAUSA": "Vandalismo", "MUERTOS": "0", "PERDIDAS": "0", "MUNICIPIO": "VILLARINO DE LOS AIRES", "AEREOS": "12"}, {"LATITUD": "42.746828", "PROVINCIA": "BURGOS", "COMUNIDAD": "CASTILLA Y LEON", "LONGITUD": "-3.531473", "IDPIF": "2003090108", "FECHA": "2003-08-05", "TIME_EXT": "7368", "PESADOS": "38", "GASTOS_EXT": "0", "TIME_CTRL": "3768", "PERSONAL": "447", "SUPQUEMADA": "959.76", "HERIDOS": "0", "IDGRUPOCAUSA": "1", "COMARCA": "SEDANO", "CAUSA": "RAYO", "MUERTOS": "0", "PERDIDAS": "1929986", "MUNICIPIO": "ALTOS LOS", "AEREOS": "13"}, {"LATITUD": "41.468271", "PROVINCIA": "SEGOVIA", "COMUNIDAD": "CASTILLA Y LEON", "LONGITUD": "-3.699765", "IDPIF": "2008400044", "FECHA": "2008-08-06", "TIME_EXT": "3255", "PESADOS": "63", "GASTOS_EXT": "0", "TIME_CTRL": "1365", "PERSONAL": "623", "SUPQUEMADA": "956.25", "HERIDOS": "1", "IDGRUPOCAUSA": "2", "COMARCA": "BOCEGUILLAS", "CAUSA": "TRABAJOS FORESTALES", "MUERTOS": "0", "PERDIDAS": "0", "MUNICIPIO": "PRADALES", "AEREOS": "18"}, {"LATITUD": "42.174643", "PROVINCIA": "ZAMORA", "COMUNIDAD": "CASTILLA Y LEON", "LONGITUD": "-6.64188", "IDPIF": "2005490699", "FECHA": "2005-08-20", "TIME_EXT": "6890", "PESADOS": "0", "GASTOS_EXT": "30446", "TIME_CTRL": "5445", "PERSONAL": "74", "SUPQUEMADA": "956.0", "HERIDOS": "0", "IDGRUPOCAUSA": "4", "COMARCA": "EL PUENTE", "CAUSA": "Sin datos", "MUERTOS": "0", "PERDIDAS": "0", "MUNICIPIO": "S JUSTO", "AEREOS": "10"}, {"LATITUD": "40.449416", "PROVINCIA": "SALAMANCA", "COMUNIDAD": "CASTILLA Y LEON", "LONGITUD": "-5.536488", "IDPIF": "2001370125", "FECHA": "2001-08-23", "TIME_EXT": "3205", "PESADOS": "1", "GASTOS_EXT": "0", "TIME_CTRL": "425", "PERSONAL": "270", "SUPQUEMADA": "950.0", "HERIDOS": "1", "IDGRUPOCAUSA": "4", "COMARCA": "GUIJUELO", "CAUSA": "Sin datos", "MUERTOS": "0", "PERDIDAS": "0", "MUNICIPIO": "TEJADO EL", "AEREOS": "9"}, {"LATITUD": "41.834989", "PROVINCIA": "ZAMORA", "COMUNIDAD": "CASTILLA Y LEON", "LONGITUD": "-6.303885", "IDPIF": "2009490542", "FECHA": "2009-08-23", "TIME_EXT": "423", "PESADOS": "28", "GASTOS_EXT": "0", "TIME_CTRL": "393", "PERSONAL": "333", "SUPQUEMADA": "935.0", "HERIDOS": "0", "IDGRUPOCAUSA": "4", "COMARCA": "ALCA\u00c3\u2018ICES", "CAUSA": "Provocados por campesinos para eliminar matorral y residuos agr\u00c3\u00adcolas", "MUERTOS": "0", "PERDIDAS": "0", "MUNICIPIO": "MAHIDE", "AEREOS": "18"}, {"LATITUD": "42.211744", "PROVINCIA": "LEON", "COMUNIDAD": "CASTILLA Y LEON", "LONGITUD": "-6.18868", "IDPIF": "2005240545", "FECHA": "2005-06-24", "TIME_EXT": "3180", "PESADOS": "24", "GASTOS_EXT": "0", "TIME_CTRL": "488", "PERSONAL": "182", "SUPQUEMADA": "921.0", "HERIDOS": "0", "IDGRUPOCAUSA": "1", "COMARCA": "LA BA\u00c3\u2018EZA", "CAUSA": "RAYO", "MUERTOS": "0", "PERDIDAS": "0", "MUNICIPIO": "CASTROCONTRIGO", "AEREOS": "5"}, {"LATITUD": "42.865252", "PROVINCIA": "BURGOS", "COMUNIDAD": "CASTILLA Y LEON", "LONGITUD": "-3.402467", "IDPIF": "2003090095", "FECHA": "2003-08-03", "TIME_EXT": "11518", "PESADOS": "41", "GASTOS_EXT": "0", "TIME_CTRL": "9741", "PERSONAL": "698", "SUPQUEMADA": "882.49", "HERIDOS": "12", "IDGRUPOCAUSA": "1", "COMARCA": "MEDINA DE POMAR", "CAUSA": "RAYO", "MUERTOS": "0", "PERDIDAS": "1344899", "MUNICIPIO": "MERINDAD DE CUESTA-URRIA", "AEREOS": "27"}, {"LATITUD": "41.052802", "PROVINCIA": "SORIA", "COMUNIDAD": "CASTILLA Y LEON", "LONGITUD": "-2.430068", "IDPIF": "2009420047", "FECHA": "2009-07-22", "TIME_EXT": "3190", "PESADOS": "17", "GASTOS_EXT": "83161", "TIME_CTRL": "1190", "PERSONAL": "163", "SUPQUEMADA": "858.72", "HERIDOS": "0", "IDGRUPOCAUSA": "3", "COMARCA": "ALMAZAN", "CAUSA": "MOTORES Y M\u00c3\ufffdQUINAS (COSECHADORAS)", "MUERTOS": "0", "PERDIDAS": "0", "MUNICIPIO": "OTRA PROVINCIA", "AEREOS": "8"}, {"LATITUD": "42.268979", "PROVINCIA": "LEON", "COMUNIDAD": "CASTILLA Y LEON", "LONGITUD": "-6.414877", "IDPIF": "2006240473", "FECHA": "2006-09-09", "TIME_EXT": "3220", "PESADOS": "2", "GASTOS_EXT": "0", "TIME_CTRL": "1540", "PERSONAL": "36", "SUPQUEMADA": "800.0", "HERIDOS": "0", "IDGRUPOCAUSA": "1", "COMARCA": "TRUCHAS", "CAUSA": "RAYO", "MUERTOS": "0", "PERDIDAS": "0", "MUNICIPIO": "TRUCHAS", "AEREOS": "0"}, {"LATITUD": "40.588716", "PROVINCIA": "AVILA", "COMUNIDAD": "CASTILLA Y LEON", "LONGITUD": "-4.538729", "IDPIF": "2001050100", "FECHA": "2001-08-23", "TIME_EXT": "2995", "PESADOS": "9", "GASTOS_EXT": "0", "TIME_CTRL": "1540", "PERSONAL": "141", "SUPQUEMADA": "790.0", "HERIDOS": "0", "IDGRUPOCAUSA": "2", "COMARCA": "EL HOYO DE PINARES", "CAUSA": "FUMADORES", "MUERTOS": "0", "PERDIDAS": "0", "MUNICIPIO": "HERRADON DE PINARES", "AEREOS": "7"}, {"LATITUD": "42.499036", "PROVINCIA": "LEON", "COMUNIDAD": "CASTILLA Y LEON", "LONGITUD": "-6.562925", "IDPIF": "2005240733", "FECHA": "2005-08-20", "TIME_EXT": "0", "PESADOS": "22", "GASTOS_EXT": "0", "TIME_CTRL": "0", "PERSONAL": "112", "SUPQUEMADA": "785.99", "HERIDOS": "0", "IDGRUPOCAUSA": "5", "COMARCA": "PONFERRADA", "CAUSA": "CAUSA DESCONOCIDA", "MUERTOS": "0", "PERDIDAS": "0", "MUNICIPIO": "PONFERRADA", "AEREOS": "12"}, {"LATITUD": "42.134592", "PROVINCIA": "ZAMORA", "COMUNIDAD": "CASTILLA Y LEON", "LONGITUD": "-6.388501", "IDPIF": "2004490433", "FECHA": "2004-08-07", "TIME_EXT": "1645", "PESADOS": "10", "GASTOS_EXT": "0", "TIME_CTRL": "1135", "PERSONAL": "100", "SUPQUEMADA": "779.85", "HERIDOS": "0", "IDGRUPOCAUSA": "4", "COMARCA": "MOMBUEY", "CAUSA": "Sin datos", "MUERTOS": "0", "PERDIDAS": "241819", "MUNICIPIO": "ESPADA\u00c3\u2018EDO", "AEREOS": "7"}, {"LATITUD": "42.755714", "PROVINCIA": "LEON", "COMUNIDAD": "CASTILLA Y LEON", "LONGITUD": "-6.183547", "IDPIF": "2009240696", "FECHA": "2009-09-10", "TIME_EXT": "7950", "PESADOS": "9", "GASTOS_EXT": "0", "TIME_CTRL": "6993", "PERSONAL": "123", "SUPQUEMADA": "726.0", "HERIDOS": "2", "IDGRUPOCAUSA": "4", "COMARCA": "CANALES-LA MAGDALENA", "CAUSA": "Provocados por cazadores para facilitar la caza", "MUERTOS": "0", "PERDIDAS": "0", "MUNICIPIO": "MURIAS DE PAREDES", "AEREOS": "17"}, {"LATITUD": "40.443319", "PROVINCIA": "AVILA", "COMUNIDAD": "CASTILLA Y LEON", "LONGITUD": "-4.936557", "IDPIF": "2011050100", "FECHA": "2011-08-19", "TIME_EXT": "8725", "PESADOS": "19", "GASTOS_EXT": "0", "TIME_CTRL": "4283", "PERSONAL": "340", "SUPQUEMADA": "709.45", "HERIDOS": "0", "IDGRUPOCAUSA": "2", "COMARCA": "NAVARREDONDA DE GREDOS", "CAUSA": "FUMADORES", "MUERTOS": "0", "PERDIDAS": "0", "MUNICIPIO": "NAVALACRUZ", "AEREOS": "14"}, {"LATITUD": "42.129827", "PROVINCIA": "ZAMORA", "COMUNIDAD": "CASTILLA Y LEON", "LONGITUD": "-6.395174", "IDPIF": "2005490403", "FECHA": "2005-03-17", "TIME_EXT": "1695", "PESADOS": "0", "GASTOS_EXT": "30244", "TIME_CTRL": "780", "PERSONAL": "73", "SUPQUEMADA": "692.0", "HERIDOS": "0", "IDGRUPOCAUSA": "4", "COMARCA": "MOMBUEY", "CAUSA": "Sin datos", "MUERTOS": "0", "PERDIDAS": "0", "MUNICIPIO": "ESPADA\u00c3\u2018EDO", "AEREOS": "7"}, {"LATITUD": "42.362649", "PROVINCIA": "LEON", "COMUNIDAD": "CASTILLA Y LEON", "LONGITUD": "-6.696539", "IDPIF": "2009240698", "FECHA": "2009-09-11", "TIME_EXT": "1126", "PESADOS": "4", "GASTOS_EXT": "0", "TIME_CTRL": "1066", "PERSONAL": "153", "SUPQUEMADA": "673.0", "HERIDOS": "2", "IDGRUPOCAUSA": "4", "COMARCA": "TRUCHAS", "CAUSA": "Sin datos", "MUERTOS": "0", "PERDIDAS": "0", "MUNICIPIO": "BENUZA", "AEREOS": "15"}, {"LATITUD": "41.129439", "PROVINCIA": "SALAMANCA", "COMUNIDAD": "CASTILLA Y LEON", "LONGITUD": "-6.271373", "IDPIF": "2007370119", "FECHA": "2007-07-31", "TIME_EXT": "1695", "PESADOS": "5", "GASTOS_EXT": "0", "TIME_CTRL": "955", "PERSONAL": "68", "SUPQUEMADA": "670.0", "HERIDOS": "0", "IDGRUPOCAUSA": "3", "COMARCA": "VITIGUDINO", "CAUSA": "MOTORES Y M\u00c3\ufffdQUINAS (SIN ESPECIFICAR)", "MUERTOS": "0", "PERDIDAS": "26800", "MUNICIPIO": "PUERTAS", "AEREOS": "4"}, {"LATITUD": "42.264327", "PROVINCIA": "LEON", "COMUNIDAD": "CASTILLA Y LEON", "LONGITUD": "-6.649845", "IDPIF": "2011240403", "FECHA": "2011-09-09", "TIME_EXT": "3209", "PESADOS": "6", "GASTOS_EXT": "0", "TIME_CTRL": "1625", "PERSONAL": "119", "SUPQUEMADA": "654.0", "HERIDOS": "0", "IDGRUPOCAUSA": "4", "COMARCA": "TRUCHAS", "CAUSA": "Sin datos", "MUERTOS": "0", "PERDIDAS": "0", "MUNICIPIO": "ENCINEDO", "AEREOS": "9"}, {"LATITUD": "42.10196", "PROVINCIA": "ZAMORA", "COMUNIDAD": "CASTILLA Y LEON", "LONGITUD": "-6.940126", "IDPIF": "2008490227", "FECHA": "2008-04-05", "TIME_EXT": "250", "PESADOS": "0", "GASTOS_EXT": "0", "TIME_CTRL": "250", "PERSONAL": "29", "SUPQUEMADA": "650.0", "HERIDOS": "0", "IDGRUPOCAUSA": "4", "COMARCA": "EL PUENTE", "CAUSA": "Provocados por campesinos para eliminar matorral y residuos agr\u00c3\u00adcolas", "MUERTOS": "0", "PERDIDAS": "0", "MUNICIPIO": "PORTO", "AEREOS": "2"}, {"LATITUD": "40.277574", "PROVINCIA": "AVILA", "COMUNIDAD": "CASTILLA Y LEON", "LONGITUD": "-4.659506", "IDPIF": "2006050105", "FECHA": "2006-08-14", "TIME_EXT": "3892", "PESADOS": "47", "GASTOS_EXT": "0", "TIME_CTRL": "360", "PERSONAL": "682", "SUPQUEMADA": "648.42", "HERIDOS": "0", "IDGRUPOCAUSA": "3", "COMARCA": "SOTILLO DE LA ADRADA", "CAUSA": "MOTORES Y M\u00c3\ufffdQUINAS (OTROS)", "MUERTOS": "0", "PERDIDAS": "0", "MUNICIPIO": "ADRADA LA", "AEREOS": "18"}, {"LATITUD": "41.480543", "PROVINCIA": "VALLADOLID", "COMUNIDAD": "CASTILLA Y LEON", "LONGITUD": "-4.567523", "IDPIF": "2004470009", "FECHA": "2004-06-18", "TIME_EXT": "2265", "PESADOS": "15", "GASTOS_EXT": "18274", "TIME_CTRL": "324", "PERSONAL": "64", "SUPQUEMADA": "638.89", "HERIDOS": "0", "IDGRUPOCAUSA": "1", "COMARCA": "MONTEMAYOR DE PILILLA", "CAUSA": "RAYO", "MUERTOS": "0", "PERDIDAS": "918597", "MUNICIPIO": "PORTILLO", "AEREOS": "0"}, {"LATITUD": "40.311565", "PROVINCIA": "AVILA", "COMUNIDAD": "CASTILLA Y LEON", "LONGITUD": "-4.87795", "IDPIF": "2005050176", "FECHA": "2005-08-06", "TIME_EXT": "4230", "PESADOS": "89", "GASTOS_EXT": "0", "TIME_CTRL": "2765", "PERSONAL": "876", "SUPQUEMADA": "630.0", "HERIDOS": "3", "IDGRUPOCAUSA": "4", "COMARCA": "SOTILLO DE LA ADRADA", "CAUSA": "Otras motivaciones", "MUERTOS": "1", "PERDIDAS": "498886", "MUNICIPIO": "CASAVIEJA", "AEREOS": "23"}, {"LATITUD": "40.994298", "PROVINCIA": "SEGOVIA", "COMUNIDAD": "CASTILLA Y LEON", "LONGITUD": "-4.057919", "IDPIF": "2007400034", "FECHA": "2007-08-28", "TIME_EXT": "1425", "PESADOS": "24", "GASTOS_EXT": "0", "TIME_CTRL": "295", "PERSONAL": "388", "SUPQUEMADA": "625.4", "HERIDOS": "0", "IDGRUPOCAUSA": "3", "COMARCA": "SANTA MARIA LA REAL DE NIEVA", "CAUSA": "L\u00c3\ufffdNEAS EL\u00c3\u2030CTRICAS", "MUERTOS": "0", "PERDIDAS": "0", "MUNICIPIO": "ESPIRDO", "AEREOS": "8"}, {"LATITUD": "42.073185", "PROVINCIA": "ZAMORA", "COMUNIDAD": "CASTILLA Y LEON", "LONGITUD": "-5.983529", "IDPIF": "2003490129", "FECHA": "2003-08-03", "TIME_EXT": "1785", "PESADOS": "15", "GASTOS_EXT": "60685", "TIME_CTRL": "660", "PERSONAL": "114", "SUPQUEMADA": "611.79", "HERIDOS": "0", "IDGRUPOCAUSA": "5", "COMARCA": "BENAVENTE", "CAUSA": "CAUSA DESCONOCIDA", "MUERTOS": "0", "PERDIDAS": "500049", "MUNICIPIO": "SANTIBA\u00c3\u2018EZ DE VIDRIALES", "AEREOS": "6"}, {"LATITUD": "42.159817", "PROVINCIA": "ZAMORA", "COMUNIDAD": "CASTILLA Y LEON", "LONGITUD": "-6.844835", "IDPIF": "2003490155", "FECHA": "2003-08-07", "TIME_EXT": "9150", "PESADOS": "0", "GASTOS_EXT": "608", "TIME_CTRL": "1290", "PERSONAL": "10", "SUPQUEMADA": "600.0", "HERIDOS": "0", "IDGRUPOCAUSA": "1", "COMARCA": "EL PUENTE", "CAUSA": "RAYO", "MUERTOS": "0", "PERDIDAS": "0", "MUNICIPIO": "PORTO", "AEREOS": "2"}, {"LATITUD": "42.028564", "PROVINCIA": "ZAMORA", "COMUNIDAD": "CASTILLA Y LEON", "LONGITUD": "-6.959994", "IDPIF": "2009490238", "FECHA": "2009-03-23", "TIME_EXT": "950", "PESADOS": "3", "GASTOS_EXT": "0", "TIME_CTRL": "250", "PERSONAL": "42", "SUPQUEMADA": "600.0", "HERIDOS": "0", "IDGRUPOCAUSA": "4", "COMARCA": "PUEBLA DE SANABRIA", "CAUSA": "Sin datos", "MUERTOS": "0", "PERDIDAS": "0", "MUNICIPIO": "HERMISENDE", "AEREOS": "5"}, {"LATITUD": "42.578622", "PROVINCIA": "LEON", "COMUNIDAD": "CASTILLA Y LEON", "LONGITUD": "-6.425615", "IDPIF": "2005240628", "FECHA": "2005-07-21", "TIME_EXT": "1853", "PESADOS": "9", "GASTOS_EXT": "0", "TIME_CTRL": "1795", "PERSONAL": "96", "SUPQUEMADA": "595.08", "HERIDOS": "0", "IDGRUPOCAUSA": "4", "COMARCA": "BEMBIBRE", "CAUSA": "Sin datos", "MUERTOS": "0", "PERDIDAS": "0", "MUNICIPIO": "CASTROPODAME", "AEREOS": "6"}, {"LATITUD": "41.771231", "PROVINCIA": "ZAMORA", "COMUNIDAD": "CASTILLA Y LEON", "LONGITUD": "-6.340814", "IDPIF": "2004490432", "FECHA": "2004-08-07", "TIME_EXT": "1575", "PESADOS": "11", "GASTOS_EXT": "0", "TIME_CTRL": "255", "PERSONAL": "156", "SUPQUEMADA": "581.75", "HERIDOS": "0", "IDGRUPOCAUSA": "2", "COMARCA": "ALCA\u00c3\u2018ICES", "CAUSA": "ESCAPE DE VERTEDERO", "MUERTOS": "0", "PERDIDAS": "0", "MUNICIPIO": "S VITERO", "AEREOS": "8"}, {"LATITUD": "42.381756", "PROVINCIA": "LEON", "COMUNIDAD": "CASTILLA Y LEON", "LONGITUD": "-6.539639", "IDPIF": "2011240586", "FECHA": "2011-10-18", "TIME_EXT": "6330", "PESADOS": "1", "GASTOS_EXT": "0", "TIME_CTRL": "3540", "PERSONAL": "93", "SUPQUEMADA": "580.0", "HERIDOS": "0", "IDGRUPOCAUSA": "4", "COMARCA": "TRUCHAS", "CAUSA": "Provocados por pastores y ganaderos para regenerar el pasto", "MUERTOS": "0", "PERDIDAS": "0", "MUNICIPIO": "CASTRILLO DE CABRERA", "AEREOS": "4"}, {"LATITUD": "42.247595", "PROVINCIA": "LEON", "COMUNIDAD": "CASTILLA Y LEON", "LONGITUD": "-6.674378", "IDPIF": "2010240135", "FECHA": "2010-08-09", "TIME_EXT": "7415", "PESADOS": "1", "GASTOS_EXT": "0", "TIME_CTRL": "5049", "PERSONAL": "43", "SUPQUEMADA": "577.0", "HERIDOS": "0", "IDGRUPOCAUSA": "4", "COMARCA": "TRUCHAS", "CAUSA": "Sin datos", "MUERTOS": "0", "PERDIDAS": "0", "MUNICIPIO": "ENCINEDO", "AEREOS": "10"}, {"LATITUD": "42.39001", "PROVINCIA": "LEON", "COMUNIDAD": "CASTILLA Y LEON", "LONGITUD": "-6.372047", "IDPIF": "2003240231", "FECHA": "2003-08-04", "TIME_EXT": "660", "PESADOS": "9", "GASTOS_EXT": "0", "TIME_CTRL": "510", "PERSONAL": "232", "SUPQUEMADA": "573.0", "HERIDOS": "2", "IDGRUPOCAUSA": "2", "COMARCA": "ASTORGA", "CAUSA": "QUEMA PARA REG. PASTOS (SIN ESPECIFICAR)", "MUERTOS": "0", "PERDIDAS": "176852", "MUNICIPIO": "LUCILLO", "AEREOS": "3"}, {"LATITUD": "41.209558", "PROVINCIA": "SALAMANCA", "COMUNIDAD": "CASTILLA Y LEON", "LONGITUD": "-6.675759", "IDPIF": "2007370116", "FECHA": "2007-07-31", "TIME_EXT": "4000", "PESADOS": "10", "GASTOS_EXT": "0", "TIME_CTRL": "2510", "PERSONAL": "194", "SUPQUEMADA": "571.0", "HERIDOS": "1", "IDGRUPOCAUSA": "3", "COMARCA": "VITIGUDINO", "CAUSA": "L\u00c3\ufffdNEAS EL\u00c3\u2030CTRICAS", "MUERTOS": "0", "PERDIDAS": "0", "MUNICIPIO": "ALDEADAVILA DE LA RIBERA", "AEREOS": "7"}, {"LATITUD": "42.660432", "PROVINCIA": "LEON", "COMUNIDAD": "CASTILLA Y LEON", "LONGITUD": "-6.002896", "IDPIF": "2005240530", "FECHA": "2005-06-22", "TIME_EXT": "5802", "PESADOS": "15", "GASTOS_EXT": "0", "TIME_CTRL": "2659", "PERSONAL": "156", "SUPQUEMADA": "566.2", "HERIDOS": "0", "IDGRUPOCAUSA": "1", "COMARCA": "BENAVIDES DE ORBIGO", "CAUSA": "RAYO", "MUERTOS": "0", "PERDIDAS": "0", "MUNICIPIO": "QUINTANA DEL CASTILLO", "AEREOS": "11"}, {"LATITUD": "42.693248", "PROVINCIA": "BURGOS", "COMUNIDAD": "CASTILLA Y LEON", "LONGITUD": "-2.661212", "IDPIF": "2009090126", "FECHA": "2009-07-22", "TIME_EXT": "27510", "PESADOS": "15", "GASTOS_EXT": "0", "TIME_CTRL": "1816", "PERSONAL": "150", "SUPQUEMADA": "550.33", "HERIDOS": "0", "IDGRUPOCAUSA": "3", "COMARCA": "MIRANDA DE EBRO", "CAUSA": "MOTORES Y M\u00c3\ufffdQUINAS (COSECHADORAS)", "MUERTOS": "0", "PERDIDAS": "0", "MUNICIPIO": "CONDADO DE TREVI\u00c3\u2018O", "AEREOS": "8"}, {"LATITUD": "40.372176", "PROVINCIA": "AVILA", "COMUNIDAD": "CASTILLA Y LEON", "LONGITUD": "-5.039497", "IDPIF": "2006050122", "FECHA": "2006-09-01", "TIME_EXT": "3273", "PESADOS": "0", "GASTOS_EXT": "0", "TIME_CTRL": "1778", "PERSONAL": "297", "SUPQUEMADA": "550.0", "HERIDOS": "0", "IDGRUPOCAUSA": "4", "COMARCA": "NAVARREDONDA DE GREDOS", "CAUSA": "Provocados por pastores y ganaderos para regenerar el pasto", "MUERTOS": "0", "PERDIDAS": "0", "MUNICIPIO": "S MARTIN DEL PIMPOLLAR", "AEREOS": "11"}, {"LATITUD": "42.131082", "PROVINCIA": "ZAMORA", "COMUNIDAD": "CASTILLA Y LEON", "LONGITUD": "-6.882621", "IDPIF": "2005490832", "FECHA": "2005-10-09", "TIME_EXT": "3750", "PESADOS": "0", "GASTOS_EXT": "11489", "TIME_CTRL": "960", "PERSONAL": "53", "SUPQUEMADA": "540.0", "HERIDOS": "0", "IDGRUPOCAUSA": "4", "COMARCA": "EL PUENTE", "CAUSA": "Provocados por pastores y ganaderos para regenerar el pasto", "MUERTOS": "0", "PERDIDAS": "0", "MUNICIPIO": "PORTO", "AEREOS": "6"}, {"LATITUD": "41.784318", "PROVINCIA": "ZAMORA", "COMUNIDAD": "CASTILLA Y LEON", "LONGITUD": "-6.357412", "IDPIF": "2001490116", "FECHA": "2001-07-28", "TIME_EXT": "0", "PESADOS": "5", "GASTOS_EXT": "0", "TIME_CTRL": "0", "PERSONAL": "97", "SUPQUEMADA": "539.9", "HERIDOS": "0", "IDGRUPOCAUSA": "1", "COMARCA": "ALCA\u00c3\u2018ICES", "CAUSA": "RAYO", "MUERTOS": "0", "PERDIDAS": "0", "MUNICIPIO": "S VITERO", "AEREOS": "3"}, {"LATITUD": "42.052689", "PROVINCIA": "ZAMORA", "COMUNIDAD": "CASTILLA Y LEON", "LONGITUD": "-6.864442", "IDPIF": "2011490152", "FECHA": "2011-04-09", "TIME_EXT": "3840", "PESADOS": "1", "GASTOS_EXT": "0", "TIME_CTRL": "2940", "PERSONAL": "20", "SUPQUEMADA": "538.0", "HERIDOS": "0", "IDGRUPOCAUSA": "4", "COMARCA": "PUEBLA DE SANABRIA", "CAUSA": "Provocados por cazadores para facilitar la caza", "MUERTOS": "0", "PERDIDAS": "0", "MUNICIPIO": "LUBIAN", "AEREOS": "2"}, {"LATITUD": "42.150012", "PROVINCIA": "ZAMORA", "COMUNIDAD": "CASTILLA Y LEON", "LONGITUD": "-6.206368", "IDPIF": "2009490472", "FECHA": "2009-07-17", "TIME_EXT": "7465", "PESADOS": "25", "GASTOS_EXT": "0", "TIME_CTRL": "1715", "PERSONAL": "115", "SUPQUEMADA": "531.87", "HERIDOS": "0", "IDGRUPOCAUSA": "4", "COMARCA": "BENAVENTE", "CAUSA": "Provocados por campesinos para eliminar matorral y residuos agr\u00c3\u00adcolas", "MUERTOS": "0", "PERDIDAS": "0", "MUNICIPIO": "CUBO DE BENAVENTE", "AEREOS": "7"}, {"LATITUD": "40.390185", "PROVINCIA": "AVILA", "COMUNIDAD": "CASTILLA Y LEON", "LONGITUD": "-4.776279", "IDPIF": "2003050175", "FECHA": "2003-09-14", "TIME_EXT": "3265", "PESADOS": "0", "GASTOS_EXT": "0", "TIME_CTRL": "1195", "PERSONAL": "530", "SUPQUEMADA": "530.0", "HERIDOS": "0", "IDGRUPOCAUSA": "4", "COMARCA": "EL TIEMBLO", "CAUSA": "Sin datos", "MUERTOS": "0", "PERDIDAS": "32036", "MUNICIPIO": "BURGOHONDO", "AEREOS": "9"}, {"LATITUD": "42.159817", "PROVINCIA": "ZAMORA", "COMUNIDAD": "CASTILLA Y LEON", "LONGITUD": "-6.844835", "IDPIF": "2001490407", "FECHA": "2001-12-16", "TIME_EXT": "3900", "PESADOS": "0", "GASTOS_EXT": "0", "TIME_CTRL": "3900", "PERSONAL": "33", "SUPQUEMADA": "526.0", "HERIDOS": "0", "IDGRUPOCAUSA": "4", "COMARCA": "EL PUENTE", "CAUSA": "Provocados por cazadores para facilitar la caza", "MUERTOS": "0", "PERDIDAS": "0", "MUNICIPIO": "PORTO", "AEREOS": "0"}, {"LATITUD": "41.962845", "PROVINCIA": "ZAMORA", "COMUNIDAD": "CASTILLA Y LEON", "LONGITUD": "-6.603441", "IDPIF": "2006490089", "FECHA": "2006-05-01", "TIME_EXT": "2925", "PESADOS": "12", "GASTOS_EXT": "43730", "TIME_CTRL": "1605", "PERSONAL": "131", "SUPQUEMADA": "515.7", "HERIDOS": "0", "IDGRUPOCAUSA": "4", "COMARCA": "PUEBLA DE SANABRIA", "CAUSA": "Provocados por campesinos para eliminar matorral y residuos agr\u00c3\u00adcolas", "MUERTOS": "0", "PERDIDAS": "0", "MUNICIPIO": "PEDRALBA DE LA PRADERIA", "AEREOS": "7"}, {"LATITUD": "41.050386", "PROVINCIA": "SALAMANCA", "COMUNIDAD": "CASTILLA Y LEON", "LONGITUD": "-6.741985", "IDPIF": "2003370168", "FECHA": "2003-08-24", "TIME_EXT": "1880", "PESADOS": "10", "GASTOS_EXT": "0", "TIME_CTRL": "740", "PERSONAL": "310", "SUPQUEMADA": "510.27", "HERIDOS": "2", "IDGRUPOCAUSA": "2", "COMARCA": "VITIGUDINO", "CAUSA": "OTRAS NEGLIGENCIAS (SIN ESPECIFICAR)", "MUERTOS": "0", "PERDIDAS": "42567", "MUNICIPIO": "SAUCELLE", "AEREOS": "8"}, {"LATITUD": "40.454866", "PROVINCIA": "AVILA", "COMUNIDAD": "CASTILLA Y LEON", "LONGITUD": "-4.432363", "IDPIF": "2003050099", "FECHA": "2003-08-01", "TIME_EXT": "3137", "PESADOS": "27", "GASTOS_EXT": "0", "TIME_CTRL": "407", "PERSONAL": "292", "SUPQUEMADA": "507.0", "HERIDOS": "1", "IDGRUPOCAUSA": "2", "COMARCA": "EL HOYO DE PINARES", "CAUSA": "ESCAPE DE VERTEDERO", "MUERTOS": "0", "PERDIDAS": "944267", "MUNICIPIO": "CEBREROS", "AEREOS": "9"}, {"LATITUD": "40.605961", "PROVINCIA": "AVILA", "COMUNIDAD": "CASTILLA Y LEON", "LONGITUD": "-4.608541", "IDPIF": "2003050142", "FECHA": "2003-08-21", "TIME_EXT": "1460", "PESADOS": "7", "GASTOS_EXT": "0", "TIME_CTRL": "350", "PERSONAL": "80", "SUPQUEMADA": "500.0", "HERIDOS": "0", "IDGRUPOCAUSA": "2", "COMARCA": "AVILA", "CAUSA": "OTRAS NEGLIGENCIAS (SIN ESPECIFICAR)", "MUERTOS": "0", "PERDIDAS": "0", "MUNICIPIO": "TORNADIZOS DE AVILA", "AEREOS": "4"}, {"LATITUD": "42.907783", "PROVINCIA": "LEON", "COMUNIDAD": "CASTILLA Y LEON", "LONGITUD": "-6.219408", "IDPIF": "2007240309", "FECHA": "2007-11-14", "TIME_EXT": "6029", "PESADOS": "0", "GASTOS_EXT": "0", "TIME_CTRL": "6029", "PERSONAL": "86", "SUPQUEMADA": "500.0", "HERIDOS": "0", "IDGRUPOCAUSA": "4", "COMARCA": "VILLABLINO-HUERGAS DE BABIA", "CAUSA": "Sin datos", "MUERTOS": "0", "PERDIDAS": "0", "MUNICIPIO": "VILLABLINO", "AEREOS": "5"}, {"LATITUD": "42.329186", "PROVINCIA": "LEON", "COMUNIDAD": "CASTILLA Y LEON", "LONGITUD": "-6.696725", "IDPIF": "2009240454", "FECHA": "2009-05-07", "TIME_EXT": "4050", "PESADOS": "0", "GASTOS_EXT": "0", "TIME_CTRL": "4050", "PERSONAL": "13", "SUPQUEMADA": "500.0", "HERIDOS": "0", "IDGRUPOCAUSA": "4", "COMARCA": "TRUCHAS", "CAUSA": "Provocados por pastores y ganaderos para regenerar el pasto", "MUERTOS": "0", "PERDIDAS": "0", "MUNICIPIO": "BENUZA", "AEREOS": "1"}, {"LATITUD": "42.089267", "PROVINCIA": "ZAMORA", "COMUNIDAD": "CASTILLA Y LEON", "LONGITUD": "-6.09782", "IDPIF": "2005490584", "FECHA": "2005-06-25", "TIME_EXT": "465", "PESADOS": "7", "GASTOS_EXT": "27813", "TIME_CTRL": "405", "PERSONAL": "42", "SUPQUEMADA": "476.0", "HERIDOS": "0", "IDGRUPOCAUSA": "4", "COMARCA": "BENAVENTE", "CAUSA": "Sin datos", "MUERTOS": "0", "PERDIDAS": "0", "MUNICIPIO": "U\u00c3\u2018A DE QUINTANA", "AEREOS": "7"}, {"LATITUD": "41.984697", "PROVINCIA": "ZAMORA", "COMUNIDAD": "CASTILLA Y LEON", "LONGITUD": "-6.889709", "IDPIF": "2001490216", "FECHA": "2001-09-03", "TIME_EXT": "4290", "PESADOS": "1", "GASTOS_EXT": "0", "TIME_CTRL": "3000", "PERSONAL": "28", "SUPQUEMADA": "460.0", "HERIDOS": "0", "IDGRUPOCAUSA": "4", "COMARCA": "PUEBLA DE SANABRIA", "CAUSA": "Provocados por campesinos para eliminar matorral y residuos agr\u00c3\u00adcolas", "MUERTOS": "0", "PERDIDAS": "0", "MUNICIPIO": "HERMISENDE", "AEREOS": "4"}, {"LATITUD": "40.270728", "PROVINCIA": "AVILA", "COMUNIDAD": "CASTILLA Y LEON", "LONGITUD": "-5.555749", "IDPIF": "2003050122", "FECHA": "2003-08-10", "TIME_EXT": "305", "PESADOS": "11", "GASTOS_EXT": "0", "TIME_CTRL": "210", "PERSONAL": "371", "SUPQUEMADA": "459.5", "HERIDOS": "0", "IDGRUPOCAUSA": "1", "COMARCA": "EL BARCO DE AVILA", "CAUSA": "RAYO", "MUERTOS": "0", "PERDIDAS": "178695", "MUNICIPIO": "NAVA DEL BARCO", "AEREOS": "9"}, {"LATITUD": "41.225947", "PROVINCIA": "SALAMANCA", "COMUNIDAD": "CASTILLA Y LEON", "LONGITUD": "-6.437589", "IDPIF": "2002370074", "FECHA": "2002-07-31", "TIME_EXT": "1925", "PESADOS": "12", "GASTOS_EXT": "0", "TIME_CTRL": "535", "PERSONAL": "165", "SUPQUEMADA": "452.0", "HERIDOS": "0", "IDGRUPOCAUSA": "4", "COMARCA": "VITIGUDINO", "CAUSA": "Sin datos", "MUERTOS": "0", "PERDIDAS": "24756", "MUNICIPIO": "VILLARINO DE LOS AIRES", "AEREOS": "8"}, {"LATITUD": "40.4417", "PROVINCIA": "AVILA", "COMUNIDAD": "CASTILLA Y LEON", "LONGITUD": "-5.244636", "IDPIF": "2008050085", "FECHA": "2008-04-06", "TIME_EXT": "1380", "PESADOS": "0", "GASTOS_EXT": "0", "TIME_CTRL": "1035", "PERSONAL": "49", "SUPQUEMADA": "452.0", "HERIDOS": "0", "IDGRUPOCAUSA": "4", "COMARCA": "PIEDRAHITA", "CAUSA": "Provocados por cazadores para facilitar la caza", "MUERTOS": "0", "PERDIDAS": "0", "MUNICIPIO": "NAVAESCURIAL", "AEREOS": "4"}, {"LATITUD": "40.528423", "PROVINCIA": "SALAMANCA", "COMUNIDAD": "CASTILLA Y LEON", "LONGITUD": "-5.884466", "IDPIF": "2009370373", "FECHA": "2009-09-15", "TIME_EXT": "3350", "PESADOS": "24", "GASTOS_EXT": "0", "TIME_CTRL": "980", "PERSONAL": "350", "SUPQUEMADA": "443.0", "HERIDOS": "1", "IDGRUPOCAUSA": "4", "COMARCA": "BEJAR", "CAUSA": "Provocados por campesinos para eliminar matorral y residuos agr\u00c3\u00adcolas", "MUERTOS": "0", "PERDIDAS": "0", "MUNICIPIO": "S ESTEBAN DE LA SIERRA", "AEREOS": "22"}, {"LATITUD": "42.37655", "PROVINCIA": "LEON", "COMUNIDAD": "CASTILLA Y LEON", "LONGITUD": "-6.39666", "IDPIF": "2011240587", "FECHA": "2011-10-17", "TIME_EXT": "4117", "PESADOS": "3", "GASTOS_EXT": "0", "TIME_CTRL": "2723", "PERSONAL": "64", "SUPQUEMADA": "441.7", "HERIDOS": "0", "IDGRUPOCAUSA": "4", "COMARCA": "ASTORGA", "CAUSA": "Sin datos", "MUERTOS": "1", "PERDIDAS": "0", "MUNICIPIO": "LUCILLO", "AEREOS": "9"}, {"LATITUD": "41.099921", "PROVINCIA": "SALAMANCA", "COMUNIDAD": "CASTILLA Y LEON", "LONGITUD": "-6.603582", "IDPIF": "2001370117", "FECHA": "2001-08-20", "TIME_EXT": "1080", "PESADOS": "9", "GASTOS_EXT": "0", "TIME_CTRL": "360", "PERSONAL": "403", "SUPQUEMADA": "438.0", "HERIDOS": "0", "IDGRUPOCAUSA": "4", "COMARCA": "VITIGUDINO", "CAUSA": "Sin datos", "MUERTOS": "0", "PERDIDAS": "655152", "MUNICIPIO": "MILANO EL", "AEREOS": "5"}, {"LATITUD": "42.67063", "PROVINCIA": "LEON", "COMUNIDAD": "CASTILLA Y LEON", "LONGITUD": "-6.852664", "IDPIF": "2009240705", "FECHA": "2009-09-11", "TIME_EXT": "4147", "PESADOS": "4", "GASTOS_EXT": "0", "TIME_CTRL": "3374", "PERSONAL": "89", "SUPQUEMADA": "435.0", "HERIDOS": "0", "IDGRUPOCAUSA": "2", "COMARCA": "VILLAFRANCA", "CAUSA": "QUEMA PARA REG. PASTOS (SIN ESPECIFICAR)", "MUERTOS": "0", "PERDIDAS": "0", "MUNICIPIO": "TRABADELO", "AEREOS": "9"}, {"LATITUD": "40.624597", "PROVINCIA": "AVILA", "COMUNIDAD": "CASTILLA Y LEON", "LONGITUD": "-5.040751", "IDPIF": "2007050053", "FECHA": "2007-07-31", "TIME_EXT": "2256", "PESADOS": "12", "GASTOS_EXT": "0", "TIME_CTRL": "936", "PERSONAL": "319", "SUPQUEMADA": "428.0", "HERIDOS": "0", "IDGRUPOCAUSA": "3", "COMARCA": "PIEDRAHITA", "CAUSA": "MOTORES Y M\u00c3\ufffdQUINAS (OTROS)", "MUERTOS": "0", "PERDIDAS": "0", "MUNICIPIO": "S JUAN DEL OLMO", "AEREOS": "11"}, {"LATITUD": "42.884492", "PROVINCIA": "LEON", "COMUNIDAD": "CASTILLA Y LEON", "LONGITUD": "-5.42042", "IDPIF": "2005240723", "FECHA": "2005-08-17", "TIME_EXT": "6010", "PESADOS": "7", "GASTOS_EXT": "0", "TIME_CTRL": "4580", "PERSONAL": "110", "SUPQUEMADA": "422.6", "HERIDOS": "1", "IDGRUPOCAUSA": "1", "COMARCA": "LA VECILLA-LA ROBLA", "CAUSA": "RAYO", "MUERTOS": "0", "PERDIDAS": "0", "MUNICIPIO": "VALDEPIELAGO", "AEREOS": "10"}, {"LATITUD": "42.717788", "PROVINCIA": "LEON", "COMUNIDAD": "CASTILLA Y LEON", "LONGITUD": "-6.503373", "IDPIF": "2006240385", "FECHA": "2006-08-08", "TIME_EXT": "1977", "PESADOS": "6", "GASTOS_EXT": "0", "TIME_CTRL": "746", "PERSONAL": "182", "SUPQUEMADA": "421.0", "HERIDOS": "0", "IDGRUPOCAUSA": "4", "COMARCA": "VEGA DE ESPINAREDA", "CAUSA": "Provocados por campesinos para eliminar matorral y residuos agr\u00c3\u00adcolas", "MUERTOS": "0", "PERDIDAS": "0", "MUNICIPIO": "TORENO", "AEREOS": "5"}, {"LATITUD": "42.051915", "PROVINCIA": "ZAMORA", "COMUNIDAD": "CASTILLA Y LEON", "LONGITUD": "-6.891059", "IDPIF": "2008490242", "FECHA": "2008-04-06", "TIME_EXT": "1740", "PESADOS": "0", "GASTOS_EXT": "0", "TIME_CTRL": "1730", "PERSONAL": "18", "SUPQUEMADA": "418.0", "HERIDOS": "0", "IDGRUPOCAUSA": "4", "COMARCA": "PUEBLA DE SANABRIA", "CAUSA": "Sin datos", "MUERTOS": "0", "PERDIDAS": "0", "MUNICIPIO": "LUBIAN", "AEREOS": "1"}, {"LATITUD": "42.527681", "PROVINCIA": "LEON", "COMUNIDAD": "CASTILLA Y LEON", "LONGITUD": "-6.456877", "IDPIF": "2004240018", "FECHA": "2004-07-25", "TIME_EXT": "1795", "PESADOS": "9", "GASTOS_EXT": "0", "TIME_CTRL": "411", "PERSONAL": "176", "SUPQUEMADA": "413.9", "HERIDOS": "1", "IDGRUPOCAUSA": "2", "COMARCA": "PONFERRADA", "CAUSA": "HOGUERAS", "MUERTOS": "0", "PERDIDAS": "36706", "MUNICIPIO": "MOLINASECA", "AEREOS": "5"}, {"LATITUD": "41.690441", "PROVINCIA": "ZAMORA", "COMUNIDAD": "CASTILLA Y LEON", "LONGITUD": "-5.903104", "IDPIF": "2002490305", "FECHA": "2002-08-14", "TIME_EXT": "1860", "PESADOS": "11", "GASTOS_EXT": "7506", "TIME_CTRL": "510", "PERSONAL": "69", "SUPQUEMADA": "412.28", "HERIDOS": "0", "IDGRUPOCAUSA": "4", "COMARCA": "TABARA", "CAUSA": "Provocados por cazadores para facilitar la caza", "MUERTOS": "0", "PERDIDAS": "51617", "MUNICIPIO": "STA EUFEMIA DEL BARCO", "AEREOS": "8"}, {"LATITUD": "41.225947", "PROVINCIA": "SALAMANCA", "COMUNIDAD": "CASTILLA Y LEON", "LONGITUD": "-6.437589", "IDPIF": "2003370100", "FECHA": "2003-08-04", "TIME_EXT": "3725", "PESADOS": "5", "GASTOS_EXT": "0", "TIME_CTRL": "1685", "PERSONAL": "94", "SUPQUEMADA": "410.0", "HERIDOS": "0", "IDGRUPOCAUSA": "4", "COMARCA": "VITIGUDINO", "CAUSA": "Sin datos", "MUERTOS": "0", "PERDIDAS": "217567", "MUNICIPIO": "VILLARINO DE LOS AIRES", "AEREOS": "6"}, {"LATITUD": "41.984697", "PROVINCIA": "ZAMORA", "COMUNIDAD": "CASTILLA Y LEON", "LONGITUD": "-6.889709", "IDPIF": "2005490704", "FECHA": "2005-08-20", "TIME_EXT": "3300", "PESADOS": "7", "GASTOS_EXT": "29009", "TIME_CTRL": "1860", "PERSONAL": "82", "SUPQUEMADA": "409.0", "HERIDOS": "0", "IDGRUPOCAUSA": "4", "COMARCA": "PUEBLA DE SANABRIA", "CAUSA": "Provocados por pastores y ganaderos para regenerar el pasto", "MUERTOS": "0", "PERDIDAS": "0", "MUNICIPIO": "HERMISENDE", "AEREOS": "6"}, {"LATITUD": "40.511526", "PROVINCIA": "SALAMANCA", "COMUNIDAD": "CASTILLA Y LEON", "LONGITUD": "-5.697361", "IDPIF": "2002370105", "FECHA": "2002-08-18", "TIME_EXT": "3340", "PESADOS": "13", "GASTOS_EXT": "0", "TIME_CTRL": "500", "PERSONAL": "147", "SUPQUEMADA": "407.58", "HERIDOS": "0", "IDGRUPOCAUSA": "4", "COMARCA": "GUIJUELO", "CAUSA": "Sin datos", "MUERTOS": "0", "PERDIDAS": "14945", "MUNICIPIO": "FUENTES DE BEJAR", "AEREOS": "4"}, {"LATITUD": "42.265003", "PROVINCIA": "LEON", "COMUNIDAD": "CASTILLA Y LEON", "LONGITUD": "-6.640489", "IDPIF": "2001240299", "FECHA": "2001-08-13", "TIME_EXT": "1775", "PESADOS": "5", "GASTOS_EXT": "5992", "TIME_CTRL": "1295", "PERSONAL": "51", "SUPQUEMADA": "407.0", "HERIDOS": "0", "IDGRUPOCAUSA": "4", "COMARCA": "TRUCHAS", "CAUSA": "Provocados por pastores y ganaderos para regenerar el pasto", "MUERTOS": "0", "PERDIDAS": "853145", "MUNICIPIO": "ENCINEDO", "AEREOS": "3"}, {"LATITUD": "42.382877", "PROVINCIA": "LEON", "COMUNIDAD": "CASTILLA Y LEON", "LONGITUD": "-6.671312", "IDPIF": "2005240629", "FECHA": "2005-07-20", "TIME_EXT": "0", "PESADOS": "8", "GASTOS_EXT": "0", "TIME_CTRL": "0", "PERSONAL": "22", "SUPQUEMADA": "400.0", "HERIDOS": "0", "IDGRUPOCAUSA": "4", "COMARCA": "TRUCHAS", "CAUSA": "Sin datos", "MUERTOS": "0", "PERDIDAS": "0", "MUNICIPIO": "BENUZA", "AEREOS": "6"}, {"LATITUD": "42.200747", "PROVINCIA": "ZAMORA", "COMUNIDAD": "CASTILLA Y LEON", "LONGITUD": "-6.866889", "IDPIF": "2008490087", "FECHA": "2008-02-16", "TIME_EXT": "1710", "PESADOS": "1", "GASTOS_EXT": "0", "TIME_CTRL": "1440", "PERSONAL": "21", "SUPQUEMADA": "400.0", "HERIDOS": "0", "IDGRUPOCAUSA": "4", "COMARCA": "EL PUENTE", "CAUSA": "Provocados por campesinos para eliminar matorral y residuos agr\u00c3\u00adcolas", "MUERTOS": "0", "PERDIDAS": "0", "MUNICIPIO": "PORTO", "AEREOS": "6"}, {"LATITUD": "40.470548", "PROVINCIA": "AVILA", "COMUNIDAD": "CASTILLA Y LEON", "LONGITUD": "-4.991834", "IDPIF": "2006050107", "FECHA": "2006-08-15", "TIME_EXT": "2710", "PESADOS": "17", "GASTOS_EXT": "0", "TIME_CTRL": "925", "PERSONAL": "224", "SUPQUEMADA": "397.29", "HERIDOS": "0", "IDGRUPOCAUSA": "2", "COMARCA": "NAVARREDONDA DE GREDOS", "CAUSA": "FUMADORES", "MUERTOS": "0", "PERDIDAS": "0", "MUNICIPIO": "NAVALACRUZ", "AEREOS": "13"}, {"LATITUD": "42.651921", "PROVINCIA": "BURGOS", "COMUNIDAD": "CASTILLA Y LEON", "LONGITUD": "-3.125294", "IDPIF": "2001090128", "FECHA": "2001-08-07", "TIME_EXT": "8265", "PESADOS": "21", "GASTOS_EXT": "0", "TIME_CTRL": "735", "PERSONAL": "156", "SUPQUEMADA": "394.31", "HERIDOS": "0", "IDGRUPOCAUSA": "2", "COMARCA": "MIRANDA DE EBRO", "CAUSA": "QUEMA AGR\u00c3\ufffdCOLA (SIN ESPECIFICAR)", "MUERTOS": "0", "PERDIDAS": "184686", "MUNICIPIO": "PANCORBO", "AEREOS": "12"}, {"LATITUD": "42.211744", "PROVINCIA": "LEON", "COMUNIDAD": "CASTILLA Y LEON", "LONGITUD": "-6.18868", "IDPIF": "2003240025", "FECHA": "2003-03-19", "TIME_EXT": "1710", "PESADOS": "6", "GASTOS_EXT": "0", "TIME_CTRL": "501", "PERSONAL": "63", "SUPQUEMADA": "393.5", "HERIDOS": "0", "IDGRUPOCAUSA": "4", "COMARCA": "LA BA\u00c3\u2018EZA", "CAUSA": "Provocados por campesinos para eliminar matorral y residuos agr\u00c3\u00adcolas", "MUERTOS": "0", "PERDIDAS": "36528", "MUNICIPIO": "CASTROCONTRIGO", "AEREOS": "3"}, {"LATITUD": "41.717401", "PROVINCIA": "ZAMORA", "COMUNIDAD": "CASTILLA Y LEON", "LONGITUD": "-6.050178", "IDPIF": "2003490136", "FECHA": "2003-08-04", "TIME_EXT": "1010", "PESADOS": "3", "GASTOS_EXT": "16692", "TIME_CTRL": "455", "PERSONAL": "50", "SUPQUEMADA": "388.64", "HERIDOS": "0", "IDGRUPOCAUSA": "4", "COMARCA": "TABARA", "CAUSA": "Sin datos", "MUERTOS": "0", "PERDIDAS": "304210", "MUNICIPIO": "FERRERUELA", "AEREOS": "4"}, {"LATITUD": "42.516328", "PROVINCIA": "PALENCIA", "COMUNIDAD": "CASTILLA Y LEON", "LONGITUD": "-4.523076", "IDPIF": "2005340053", "FECHA": "2005-07-16", "TIME_EXT": "855", "PESADOS": "20", "GASTOS_EXT": "0", "TIME_CTRL": "745", "PERSONAL": "112", "SUPQUEMADA": "376.0", "HERIDOS": "0", "IDGRUPOCAUSA": "3", "COMARCA": "BOEDO-OJEDA", "CAUSA": "MOTORES Y M\u00c3\ufffdQUINAS (COSECHADORAS)", "MUERTOS": "0", "PERDIDAS": "0", "MUNICIPIO": "VILLANU\u00c3\u2018O DE VALDAVIA", "AEREOS": "5"}, {"LATITUD": "42.099104", "PROVINCIA": "ZAMORA", "COMUNIDAD": "CASTILLA Y LEON", "LONGITUD": "-6.943605", "IDPIF": "2005490021", "FECHA": "2005-01-22", "TIME_EXT": "4260", "PESADOS": "0", "GASTOS_EXT": "0", "TIME_CTRL": "3060", "PERSONAL": "8", "SUPQUEMADA": "370.0", "HERIDOS": "0", "IDGRUPOCAUSA": "4", "COMARCA": "EL PUENTE", "CAUSA": "Provocados por pastores y ganaderos para regenerar el pasto", "MUERTOS": "0", "PERDIDAS": "0", "MUNICIPIO": "PORTO", "AEREOS": "0"}, {"LATITUD": "42.80839", "PROVINCIA": "LEON", "COMUNIDAD": "CASTILLA Y LEON", "LONGITUD": "-6.019478", "IDPIF": "2005240634", "FECHA": "2005-07-22", "TIME_EXT": "3376", "PESADOS": "5", "GASTOS_EXT": "0", "TIME_CTRL": "856", "PERSONAL": "15", "SUPQUEMADA": "369.64", "HERIDOS": "0", "IDGRUPOCAUSA": "2", "COMARCA": "CANALES-LA MAGDALENA", "CAUSA": "TRABAJOS FORESTALES", "MUERTOS": "0", "PERDIDAS": "0", "MUNICIPIO": "RIELLO", "AEREOS": "2"}, {"LATITUD": "42.00031", "PROVINCIA": "ZAMORA", "COMUNIDAD": "CASTILLA Y LEON", "LONGITUD": "-6.81147", "IDPIF": "2004490423", "FECHA": "2004-08-01", "TIME_EXT": "2550", "PESADOS": "3", "GASTOS_EXT": "0", "TIME_CTRL": "1590", "PERSONAL": "54", "SUPQUEMADA": "369.0", "HERIDOS": "0", "IDGRUPOCAUSA": "4", "COMARCA": "PUEBLA DE SANABRIA", "CAUSA": "Provocados por pastores y ganaderos para regenerar el pasto", "MUERTOS": "0", "PERDIDAS": "0", "MUNICIPIO": "HERMISENDE", "AEREOS": "3"}, {"LATITUD": "42.596821", "PROVINCIA": "LEON", "COMUNIDAD": "CASTILLA Y LEON", "LONGITUD": "-6.100911", "IDPIF": "2008240501", "FECHA": "2008-08-31", "TIME_EXT": "3040", "PESADOS": "11", "GASTOS_EXT": "0", "TIME_CTRL": "780", "PERSONAL": "169", "SUPQUEMADA": "369.0", "HERIDOS": "0", "IDGRUPOCAUSA": "2", "COMARCA": "ASTORGA", "CAUSA": "QUEMA DE BASURA", "MUERTOS": "0", "PERDIDAS": "0", "MUNICIPIO": "MAGAZ DE CEPEDA", "AEREOS": "8"}, {"LATITUD": "42.324933", "PROVINCIA": "LEON", "COMUNIDAD": "CASTILLA Y LEON", "LONGITUD": "-6.109487", "IDPIF": "2008240457", "FECHA": "2008-08-17", "TIME_EXT": "1622", "PESADOS": "11", "GASTOS_EXT": "0", "TIME_CTRL": "611", "PERSONAL": "115", "SUPQUEMADA": "368.0", "HERIDOS": "0", "IDGRUPOCAUSA": "4", "COMARCA": "LA BA\u00c3\u2018EZA", "CAUSA": "Provocados por campesinos para eliminar matorral y residuos agr\u00c3\u00adcolas", "MUERTOS": "0", "PERDIDAS": "0", "MUNICIPIO": "CASTRILLO DE LA VALDUERNA", "AEREOS": "7"}, {"LATITUD": "41.525001", "PROVINCIA": "ZAMORA", "COMUNIDAD": "CASTILLA Y LEON", "LONGITUD": "-6.045814", "IDPIF": "2009490528", "FECHA": "2009-08-28", "TIME_EXT": "3100", "PESADOS": "0", "GASTOS_EXT": "0", "TIME_CTRL": "1150", "PERSONAL": "24", "SUPQUEMADA": "360.0", "HERIDOS": "0", "IDGRUPOCAUSA": "6", "COMARCA": "ALCA\u00c3\u2018ICES", "CAUSA": "INCENDIO REPRODUCIDO", "MUERTOS": "0", "PERDIDAS": "0", "MUNICIPIO": "VILLALCAMPO", "AEREOS": "7"}, {"LATITUD": "41.329502", "PROVINCIA": "ZAMORA", "COMUNIDAD": "CASTILLA Y LEON", "LONGITUD": "-6.274419", "IDPIF": "2002490325", "FECHA": "2002-08-19", "TIME_EXT": "1275", "PESADOS": "4", "GASTOS_EXT": "0", "TIME_CTRL": "465", "PERSONAL": "89", "SUPQUEMADA": "359.66", "HERIDOS": "0", "IDGRUPOCAUSA": "4", "COMARCA": "BERMILLO DE SAYAGO", "CAUSA": "Sin datos", "MUERTOS": "0", "PERDIDAS": "0", "MUNICIPIO": "VILLAR DEL BUEY", "AEREOS": "6"}, {"LATITUD": "41.847454", "PROVINCIA": "ZAMORA", "COMUNIDAD": "CASTILLA Y LEON", "LONGITUD": "-5.992568", "IDPIF": "2004490313", "FECHA": "2004-06-18", "TIME_EXT": "2700", "PESADOS": "9", "GASTOS_EXT": "0", "TIME_CTRL": "930", "PERSONAL": "109", "SUPQUEMADA": "355.0", "HERIDOS": "0", "IDGRUPOCAUSA": "2", "COMARCA": "TABARA", "CAUSA": "TRABAJOS FORESTALES", "MUERTOS": "0", "PERDIDAS": "968130", "MUNICIPIO": "TABARA", "AEREOS": "6"}, {"LATITUD": "42.877336", "PROVINCIA": "LEON", "COMUNIDAD": "CASTILLA Y LEON", "LONGITUD": "-5.13048", "IDPIF": "2005240704", "FECHA": "2005-08-16", "TIME_EXT": "0", "PESADOS": "0", "GASTOS_EXT": "0", "TIME_CTRL": "0", "PERSONAL": "48", "SUPQUEMADA": "350.0", "HERIDOS": "1", "IDGRUPOCAUSA": "1", "COMARCA": "CISTIERNA", "CAUSA": "RAYO", "MUERTOS": "0", "PERDIDAS": "0", "MUNICIPIO": "CREMENES", "AEREOS": "7"}, {"LATITUD": "42.211744", "PROVINCIA": "LEON", "COMUNIDAD": "CASTILLA Y LEON", "LONGITUD": "-6.18868", "IDPIF": "2009240541", "FECHA": "2009-07-17", "TIME_EXT": "276", "PESADOS": "8", "GASTOS_EXT": "0", "TIME_CTRL": "276", "PERSONAL": "68", "SUPQUEMADA": "350.0", "HERIDOS": "0", "IDGRUPOCAUSA": "2", "COMARCA": "LA BA\u00c3\u2018EZA", "CAUSA": "OTRAS NEGLIGENCIAS (ACTIVIDADES AP\u00c3\ufffdCOLAS)", "MUERTOS": "0", "PERDIDAS": "0", "MUNICIPIO": "CASTROCONTRIGO", "AEREOS": "6"}, {"LATITUD": "42.116108", "PROVINCIA": "ZAMORA", "COMUNIDAD": "CASTILLA Y LEON", "LONGITUD": "-6.928613", "IDPIF": "2011490455", "FECHA": "2011-12-24", "TIME_EXT": "2190", "PESADOS": "0", "GASTOS_EXT": "0", "TIME_CTRL": "420", "PERSONAL": "0", "SUPQUEMADA": "350.0", "HERIDOS": "0", "IDGRUPOCAUSA": "4", "COMARCA": "EL PUENTE", "CAUSA": "Provocados por cazadores para facilitar la caza", "MUERTOS": "0", "PERDIDAS": "0", "MUNICIPIO": "P\u00c3\ufffdAS", "AEREOS": "0"}, {"LATITUD": "41.739583", "PROVINCIA": "ZAMORA", "COMUNIDAD": "CASTILLA Y LEON", "LONGITUD": "-6.167823", "IDPIF": "2008490355", "FECHA": "2008-08-30", "TIME_EXT": "6230", "PESADOS": "19", "GASTOS_EXT": "0", "TIME_CTRL": "631", "PERSONAL": "166", "SUPQUEMADA": "347.5", "HERIDOS": "0", "IDGRUPOCAUSA": "2", "COMARCA": "ALCA\u00c3\u2018ICES", "CAUSA": "OTRAS NEGLIGENCIAS (FUEGOS ARTIFICIALES)", "MUERTOS": "0", "PERDIDAS": "0", "MUNICIPIO": "GALLEGOS DEL RIO", "AEREOS": "13"}, {"LATITUD": "42.824779", "PROVINCIA": "LEON", "COMUNIDAD": "CASTILLA Y LEON", "LONGITUD": "-6.490871", "IDPIF": "2005240485", "FECHA": "2005-06-10", "TIME_EXT": "4785", "PESADOS": "3", "GASTOS_EXT": "0", "TIME_CTRL": "4665", "PERSONAL": "55", "SUPQUEMADA": "344.0", "HERIDOS": "0", "IDGRUPOCAUSA": "1", "COMARCA": "VEGA DE ESPINAREDA", "CAUSA": "RAYO", "MUERTOS": "0", "PERDIDAS": "0", "MUNICIPIO": "PARAMO DEL SIL", "AEREOS": "5"}, {"LATITUD": "40.515158", "PROVINCIA": "SALAMANCA", "COMUNIDAD": "CASTILLA Y LEON", "LONGITUD": "-5.875352", "IDPIF": "2001370100", "FECHA": "2001-08-12", "TIME_EXT": "1830", "PESADOS": "7", "GASTOS_EXT": "0", "TIME_CTRL": "540", "PERSONAL": "157", "SUPQUEMADA": "340.0", "HERIDOS": "0", "IDGRUPOCAUSA": "4", "COMARCA": "BEJAR", "CAUSA": "Sin datos", "MUERTOS": "0", "PERDIDAS": "12533", "MUNICIPIO": "S ESTEBAN DE LA SIERRA", "AEREOS": "7"}, {"LATITUD": "42.336686", "PROVINCIA": "LEON", "COMUNIDAD": "CASTILLA Y LEON", "LONGITUD": "-6.235262", "IDPIF": "2003240057", "FECHA": "2003-04-03", "TIME_EXT": "2520", "PESADOS": "1", "GASTOS_EXT": "0", "TIME_CTRL": "2430", "PERSONAL": "20", "SUPQUEMADA": "340.0", "HERIDOS": "0", "IDGRUPOCAUSA": "3", "COMARCA": "LA BA\u00c3\u2018EZA", "CAUSA": "MANIOBRAS MILITARES", "MUERTOS": "0", "PERDIDAS": "0", "MUNICIPIO": "LUYEGO", "AEREOS": "0"}, {"LATITUD": "41.010174", "PROVINCIA": "SALAMANCA", "COMUNIDAD": "CASTILLA Y LEON", "LONGITUD": "-6.311379", "IDPIF": "2003370120", "FECHA": "2003-08-10", "TIME_EXT": "1500", "PESADOS": "8", "GASTOS_EXT": "0", "TIME_CTRL": "240", "PERSONAL": "95", "SUPQUEMADA": "340.0", "HERIDOS": "0", "IDGRUPOCAUSA": "1", "COMARCA": "VITIGUDINO", "CAUSA": "RAYO", "MUERTOS": "0", "PERDIDAS": "26050", "MUNICIPIO": "PERALEJOS DE ARRIBA", "AEREOS": "2"}, {"LATITUD": "42.053199", "PROVINCIA": "ZAMORA", "COMUNIDAD": "CASTILLA Y LEON", "LONGITUD": "-6.921548", "IDPIF": "2006490042", "FECHA": "2006-02-11", "TIME_EXT": "2490", "PESADOS": "0", "GASTOS_EXT": "2001", "TIME_CTRL": "2310", "PERSONAL": "35", "SUPQUEMADA": "340.0", "HERIDOS": "0", "IDGRUPOCAUSA": "4", "COMARCA": "PUEBLA DE SANABRIA", "CAUSA": "Sin datos", "MUERTOS": "0", "PERDIDAS": "0", "MUNICIPIO": "LUBIAN", "AEREOS": "1"}, {"LATITUD": "41.380144", "PROVINCIA": "ZAMORA", "COMUNIDAD": "CASTILLA Y LEON", "LONGITUD": "-6.162011", "IDPIF": "2007490109", "FECHA": "2007-07-31", "TIME_EXT": "1790", "PESADOS": "14", "GASTOS_EXT": "0", "TIME_CTRL": "250", "PERSONAL": "126", "SUPQUEMADA": "338.0", "HERIDOS": "0", "IDGRUPOCAUSA": "4", "COMARCA": "BERMILLO DE SAYAGO", "CAUSA": "Provocados por cazadores para facilitar la caza", "MUERTOS": "0", "PERDIDAS": "0", "MUNICIPIO": "BERMILLO DE SAYAGO", "AEREOS": "7"}, {"LATITUD": "41.787807", "PROVINCIA": "ZAMORA", "COMUNIDAD": "CASTILLA Y LEON", "LONGITUD": "-5.960393", "IDPIF": "2009490516", "FECHA": "2009-08-23", "TIME_EXT": "2691", "PESADOS": "11", "GASTOS_EXT": "0", "TIME_CTRL": "1291", "PERSONAL": "99", "SUPQUEMADA": "332.0", "HERIDOS": "0", "IDGRUPOCAUSA": "4", "COMARCA": "TABARA", "CAUSA": "Provocados por cazadores para facilitar la caza", "MUERTOS": "0", "PERDIDAS": "0", "MUNICIPIO": "FERRERUELA", "AEREOS": "3"}, {"LATITUD": "41.884987", "PROVINCIA": "ZAMORA", "COMUNIDAD": "CASTILLA Y LEON", "LONGITUD": "-6.567848", "IDPIF": "2009490549", "FECHA": "2009-09-03", "TIME_EXT": "2550", "PESADOS": "7", "GASTOS_EXT": "0", "TIME_CTRL": "625", "PERSONAL": "93", "SUPQUEMADA": "330.68", "HERIDOS": "0", "IDGRUPOCAUSA": "4", "COMARCA": "ALCA\u00c3\u2018ICES", "CAUSA": "Provocados para ahuyentar animales (lobos - jabal\u00c3\u00ades)", "MUERTOS": "0", "PERDIDAS": "0", "MUNICIPIO": "FIGUERUELA DE ARRIBA", "AEREOS": "5"}, {"LATITUD": "42.097387", "PROVINCIA": "ZAMORA", "COMUNIDAD": "CASTILLA Y LEON", "LONGITUD": "-6.947148", "IDPIF": "2011490169", "FECHA": "2011-04-17", "TIME_EXT": "1363", "PESADOS": "1", "GASTOS_EXT": "0", "TIME_CTRL": "543", "PERSONAL": "34", "SUPQUEMADA": "329.02", "HERIDOS": "0", "IDGRUPOCAUSA": "4", "COMARCA": "EL PUENTE", "CAUSA": "Sin datos", "MUERTOS": "0", "PERDIDAS": "0", "MUNICIPIO": "P\u00c3\ufffdAS", "AEREOS": "5"}, {"LATITUD": "41.838669", "PROVINCIA": "ZAMORA", "COMUNIDAD": "CASTILLA Y LEON", "LONGITUD": "-6.181838", "IDPIF": "2006490231", "FECHA": "2006-08-31", "TIME_EXT": "3720", "PESADOS": "17", "GASTOS_EXT": "30419", "TIME_CTRL": "600", "PERSONAL": "168", "SUPQUEMADA": "329.0", "HERIDOS": "0", "IDGRUPOCAUSA": "4", "COMARCA": "TABARA", "CAUSA": "Sin datos", "MUERTOS": "0", "PERDIDAS": "0", "MUNICIPIO": "RIOFRIO DE ALISTE", "AEREOS": "10"}, {"LATITUD": "41.664669", "PROVINCIA": "VALLADOLID", "COMUNIDAD": "CASTILLA Y LEON", "LONGITUD": "-4.28223", "IDPIF": "2002470044", "FECHA": "2002-07-27", "TIME_EXT": "624", "PESADOS": "16", "GASTOS_EXT": "3549", "TIME_CTRL": "505", "PERSONAL": "64", "SUPQUEMADA": "326.61", "HERIDOS": "0", "IDGRUPOCAUSA": "3", "COMARCA": "QUINTANILLA DE ONESIMO", "CAUSA": "MOTORES Y M\u00c3\ufffdQUINAS (SIN ESPECIFICAR)", "MUERTOS": "0", "PERDIDAS": "30048", "MUNICIPIO": "VALBUENA DE DUERO", "AEREOS": "4"}, {"LATITUD": "42.992793", "PROVINCIA": "LEON", "COMUNIDAD": "CASTILLA Y LEON", "LONGITUD": "-5.606358", "IDPIF": "2011240502", "FECHA": "2011-10-02", "TIME_EXT": "6219", "PESADOS": "6", "GASTOS_EXT": "0", "TIME_CTRL": "3310", "PERSONAL": "96", "SUPQUEMADA": "325.68", "HERIDOS": "0", "IDGRUPOCAUSA": "4", "COMARCA": "LA VECILLA-LA ROBLA", "CAUSA": "Sin datos", "MUERTOS": "0", "PERDIDAS": "0", "MUNICIPIO": "CARMENES", "AEREOS": "11"}, {"LATITUD": "41.678214", "PROVINCIA": "ZAMORA", "COMUNIDAD": "CASTILLA Y LEON", "LONGITUD": "-6.20705", "IDPIF": "2007490134", "FECHA": "2007-08-05", "TIME_EXT": "1700", "PESADOS": "9", "GASTOS_EXT": "0", "TIME_CTRL": "471", "PERSONAL": "47", "SUPQUEMADA": "321.3", "HERIDOS": "0", "IDGRUPOCAUSA": "4", "COMARCA": "ALCA\u00c3\u2018ICES", "CAUSA": "Sin datos", "MUERTOS": "0", "PERDIDAS": "0", "MUNICIPIO": "SAMIR DE LOS CA\u00c3\u2018OS", "AEREOS": "10"}, {"LATITUD": "42.729722", "PROVINCIA": "BURGOS", "COMUNIDAD": "CASTILLA Y LEON", "LONGITUD": "-2.711304", "IDPIF": "2010090101", "FECHA": "2010-08-26", "TIME_EXT": "8614", "PESADOS": "73", "GASTOS_EXT": "0", "TIME_CTRL": "417", "PERSONAL": "242", "SUPQUEMADA": "320.04", "HERIDOS": "0", "IDGRUPOCAUSA": "2", "COMARCA": "MIRANDA DE EBRO", "CAUSA": "OTRAS NEGLIGENCIAS (OTRAS)", "MUERTOS": "0", "PERDIDAS": "0", "MUNICIPIO": "CONDADO DE TREVI\u00c3\u2018O", "AEREOS": "11"}, {"LATITUD": "42.144238", "PROVINCIA": "ZAMORA", "COMUNIDAD": "CASTILLA Y LEON", "LONGITUD": "-6.66408", "IDPIF": "2008490234", "FECHA": "2008-04-06", "TIME_EXT": "1545", "PESADOS": "1", "GASTOS_EXT": "0", "TIME_CTRL": "865", "PERSONAL": "34", "SUPQUEMADA": "320.0", "HERIDOS": "0", "IDGRUPOCAUSA": "4", "COMARCA": "EL PUENTE", "CAUSA": "Provocados por pastores y ganaderos para regenerar el pasto", "MUERTOS": "0", "PERDIDAS": "0", "MUNICIPIO": "TREFACIO", "AEREOS": "5"}, {"LATITUD": "40.840151", "PROVINCIA": "SALAMANCA", "COMUNIDAD": "CASTILLA Y LEON", "LONGITUD": "-6.829383", "IDPIF": "2009370310", "FECHA": "2009-08-19", "TIME_EXT": "2580", "PESADOS": "5", "GASTOS_EXT": "0", "TIME_CTRL": "480", "PERSONAL": "214", "SUPQUEMADA": "320.0", "HERIDOS": "0", "IDGRUPOCAUSA": "2", "COMARCA": "CIUDAD RODRIGO", "CAUSA": "QUEMA DE MATORRAL (SIN ESPECIFICAR)", "MUERTOS": "0", "PERDIDAS": "0", "MUNICIPIO": "OTRA PROVINCIA", "AEREOS": "12"}, {"LATITUD": "42.990581", "PROVINCIA": "LEON", "COMUNIDAD": "CASTILLA Y LEON", "LONGITUD": "-4.931518", "IDPIF": "2009240616", "FECHA": "2009-08-17", "TIME_EXT": "5133", "PESADOS": "4", "GASTOS_EXT": "0", "TIME_CTRL": "5133", "PERSONAL": "95", "SUPQUEMADA": "317.9", "HERIDOS": "0", "IDGRUPOCAUSA": "4", "COMARCA": "RIA\u00c3\u2018O", "CAUSA": "Sin datos", "MUERTOS": "0", "PERDIDAS": "0", "MUNICIPIO": "BOCA DE HUERGANO", "AEREOS": "17"}, {"LATITUD": "42.842498", "PROVINCIA": "LEON", "COMUNIDAD": "CASTILLA Y LEON", "LONGITUD": "-6.68069", "IDPIF": "2009240276", "FECHA": "2009-03-22", "TIME_EXT": "1211", "PESADOS": "1", "GASTOS_EXT": "0", "TIME_CTRL": "973", "PERSONAL": "12", "SUPQUEMADA": "308.29", "HERIDOS": "0", "IDGRUPOCAUSA": "4", "COMARCA": "VEGA DE ESPINAREDA", "CAUSA": "Sin datos", "MUERTOS": "0", "PERDIDAS": "0", "MUNICIPIO": "PERANZANES", "AEREOS": "2"}, {"LATITUD": "41.361763", "PROVINCIA": "ZAMORA", "COMUNIDAD": "CASTILLA Y LEON", "LONGITUD": "-6.286676", "IDPIF": "2008490346", "FECHA": "2008-08-28", "TIME_EXT": "6075", "PESADOS": "14", "GASTOS_EXT": "0", "TIME_CTRL": "4305", "PERSONAL": "102", "SUPQUEMADA": "308.0", "HERIDOS": "0", "IDGRUPOCAUSA": "3", "COMARCA": "BERMILLO DE SAYAGO", "CAUSA": "MOTORES Y M\u00c3\ufffdQUINAS (VEH\u00c3\ufffdCULOS LIGEROS Y PESADOS)", "MUERTOS": "0", "PERDIDAS": "0", "MUNICIPIO": "FARIZA", "AEREOS": "12"}, {"LATITUD": "40.704704", "PROVINCIA": "SALAMANCA", "COMUNIDAD": "CASTILLA Y LEON", "LONGITUD": "-5.796907", "IDPIF": "2003370101", "FECHA": "2003-08-05", "TIME_EXT": "1635", "PESADOS": "10", "GASTOS_EXT": "0", "TIME_CTRL": "210", "PERSONAL": "152", "SUPQUEMADA": "306.6", "HERIDOS": "0", "IDGRUPOCAUSA": "3", "COMARCA": "GUIJUELO", "CAUSA": "L\u00c3\ufffdNEAS EL\u00c3\u2030CTRICAS", "MUERTOS": "0", "PERDIDAS": "12353", "MUNICIPIO": "MEMBRIBE DE LA SIERRA", "AEREOS": "0"}, {"LATITUD": "42.268979", "PROVINCIA": "LEON", "COMUNIDAD": "CASTILLA Y LEON", "LONGITUD": "-6.414877", "IDPIF": "2002240074", "FECHA": "2002-03-21", "TIME_EXT": "360", "PESADOS": "0", "GASTOS_EXT": "0", "TIME_CTRL": "360", "PERSONAL": "11", "SUPQUEMADA": "300.0", "HERIDOS": "0", "IDGRUPOCAUSA": "4", "COMARCA": "TRUCHAS", "CAUSA": "Provocados por pastores y ganaderos para regenerar el pasto", "MUERTOS": "0", "PERDIDAS": "0", "MUNICIPIO": "TRUCHAS", "AEREOS": "0"}, {"LATITUD": "42.097883", "PROVINCIA": "ZAMORA", "COMUNIDAD": "CASTILLA Y LEON", "LONGITUD": "-6.971082", "IDPIF": "2005490681", "FECHA": "2005-08-15", "TIME_EXT": "10169", "PESADOS": "0", "GASTOS_EXT": "24746", "TIME_CTRL": "9810", "PERSONAL": "37", "SUPQUEMADA": "300.0", "HERIDOS": "0", "IDGRUPOCAUSA": "2", "COMARCA": "EL PUENTE", "CAUSA": "OTRAS NEGLIGENCIAS (OTRAS)", "MUERTOS": "0", "PERDIDAS": "0", "MUNICIPIO": "P\u00c3\ufffdAS", "AEREOS": "4"}, {"LATITUD": "42.701857", "PROVINCIA": "LEON", "COMUNIDAD": "CASTILLA Y LEON", "LONGITUD": "-6.807451", "IDPIF": "2006240451", "FECHA": "2006-09-08", "TIME_EXT": "6418", "PESADOS": "5", "GASTOS_EXT": "0", "TIME_CTRL": "5938", "PERSONAL": "67", "SUPQUEMADA": "300.0", "HERIDOS": "0", "IDGRUPOCAUSA": "2", "COMARCA": "VILLAFRANCA", "CAUSA": "QUEMA PARA REG. PASTOS (SIN ESPECIFICAR)", "MUERTOS": "0", "PERDIDAS": "0", "MUNICIPIO": "VILLAFRANCA DEL BIERZO", "AEREOS": "5"}, {"LATITUD": "40.795129", "PROVINCIA": "SALAMANCA", "COMUNIDAD": "CASTILLA Y LEON", "LONGITUD": "-6.729144", "IDPIF": "2007370174", "FECHA": "2007-08-18", "TIME_EXT": "2730", "PESADOS": "9", "GASTOS_EXT": "0", "TIME_CTRL": "1095", "PERSONAL": "144", "SUPQUEMADA": "297.0", "HERIDOS": "0", "IDGRUPOCAUSA": "4", "COMARCA": "CIUDAD RODRIGO", "CAUSA": "Provocados por pastores y ganaderos para regenerar el pasto", "MUERTOS": "0", "PERDIDAS": "4680", "MUNICIPIO": "PUERTO SEGURO", "AEREOS": "8"}, {"LATITUD": "42.163559", "PROVINCIA": "ZAMORA", "COMUNIDAD": "CASTILLA Y LEON", "LONGITUD": "-6.723364", "IDPIF": "2005490805", "FECHA": "2005-09-30", "TIME_EXT": "10250", "PESADOS": "1", "GASTOS_EXT": "15858", "TIME_CTRL": "9470", "PERSONAL": "31", "SUPQUEMADA": "286.0", "HERIDOS": "0", "IDGRUPOCAUSA": "4", "COMARCA": "EL PUENTE", "CAUSA": "Sin datos", "MUERTOS": "0", "PERDIDAS": "0", "MUNICIPIO": "GALENDE", "AEREOS": "7"}, {"LATITUD": "42.546098", "PROVINCIA": "LEON", "COMUNIDAD": "CASTILLA Y LEON", "LONGITUD": "-6.992083", "IDPIF": "2001240527", "FECHA": "2001-09-16", "TIME_EXT": "3169", "PESADOS": "3", "GASTOS_EXT": "0", "TIME_CTRL": "3164", "PERSONAL": "69", "SUPQUEMADA": "284.0", "HERIDOS": "0", "IDGRUPOCAUSA": "4", "COMARCA": "VILLAFRANCA", "CAUSA": "Provocados por campesinos para eliminar matorral y residuos agr\u00c3\u00adcolas", "MUERTOS": "0", "PERDIDAS": "0", "MUNICIPIO": "OENCIA", "AEREOS": "8"}, {"LATITUD": "41.009371", "PROVINCIA": "SALAMANCA", "COMUNIDAD": "CASTILLA Y LEON", "LONGITUD": "-6.167025", "IDPIF": "2001370152", "FECHA": "2001-09-04", "TIME_EXT": "1785", "PESADOS": "8", "GASTOS_EXT": "0", "TIME_CTRL": "1260", "PERSONAL": "145", "SUPQUEMADA": "280.0", "HERIDOS": "0", "IDGRUPOCAUSA": "2", "COMARCA": "VITIGUDINO", "CAUSA": "OTRAS NEGLIGENCIAS (SIN ESPECIFICAR)", "MUERTOS": "0", "PERDIDAS": "6", "MUNICIPIO": "VILLASDARDO", "AEREOS": "3"}, {"LATITUD": "42.824779", "PROVINCIA": "LEON", "COMUNIDAD": "CASTILLA Y LEON", "LONGITUD": "-6.490871", "IDPIF": "2007240281", "FECHA": "2007-11-09", "TIME_EXT": "6035", "PESADOS": "0", "GASTOS_EXT": "0", "TIME_CTRL": "5988", "PERSONAL": "19", "SUPQUEMADA": "278.1", "HERIDOS": "0", "IDGRUPOCAUSA": "4", "COMARCA": "VEGA DE ESPINAREDA", "CAUSA": "Provocados por cazadores para facilitar la caza", "MUERTOS": "0", "PERDIDAS": "0", "MUNICIPIO": "PARAMO DEL SIL", "AEREOS": "3"}, {"LATITUD": "42.699754", "PROVINCIA": "BURGOS", "COMUNIDAD": "CASTILLA Y LEON", "LONGITUD": "-2.777044", "IDPIF": "2009090127", "FECHA": "2009-07-22", "TIME_EXT": "27510", "PESADOS": "16", "GASTOS_EXT": "0", "TIME_CTRL": "1816", "PERSONAL": "260", "SUPQUEMADA": "275.67", "HERIDOS": "0", "IDGRUPOCAUSA": "3", "COMARCA": "MIRANDA DE EBRO", "CAUSA": "MOTORES Y M\u00c3\ufffdQUINAS (COSECHADORAS)", "MUERTOS": "0", "PERDIDAS": "0", "MUNICIPIO": "CONDADO DE TREVI\u00c3\u2018O", "AEREOS": "6"}, {"LATITUD": "42.139851", "PROVINCIA": "ZAMORA", "COMUNIDAD": "CASTILLA Y LEON", "LONGITUD": "-6.729704", "IDPIF": "2005490703", "FECHA": "2005-08-20", "TIME_EXT": "29280", "PESADOS": "2", "GASTOS_EXT": "8898", "TIME_CTRL": "27600", "PERSONAL": "137", "SUPQUEMADA": "275.0", "HERIDOS": "1", "IDGRUPOCAUSA": "4", "COMARCA": "EL PUENTE", "CAUSA": "Sin datos", "MUERTOS": "0", "PERDIDAS": "0", "MUNICIPIO": "GALENDE", "AEREOS": "5"}, {"LATITUD": "42.580532", "PROVINCIA": "LEON", "COMUNIDAD": "CASTILLA Y LEON", "LONGITUD": "-6.442095", "IDPIF": "2003240223", "FECHA": "2003-08-03", "TIME_EXT": "1574", "PESADOS": "0", "GASTOS_EXT": "0", "TIME_CTRL": "1374", "PERSONAL": "126", "SUPQUEMADA": "273.0", "HERIDOS": "0", "IDGRUPOCAUSA": "1", "COMARCA": "BEMBIBRE", "CAUSA": "RAYO", "MUERTOS": "0", "PERDIDAS": "3036", "MUNICIPIO": "CASTROPODAME", "AEREOS": "5"}, {"LATITUD": "41.276892", "PROVINCIA": "SALAMANCA", "COMUNIDAD": "CASTILLA Y LEON", "LONGITUD": "-6.418263", "IDPIF": "2010370204", "FECHA": "2010-09-05", "TIME_EXT": "1990", "PESADOS": "6", "GASTOS_EXT": "0", "TIME_CTRL": "655", "PERSONAL": "76", "SUPQUEMADA": "270.0", "HERIDOS": "0", "IDGRUPOCAUSA": "4", "COMARCA": "VITIGUDINO", "CAUSA": "Otras motivaciones", "MUERTOS": "0", "PERDIDAS": "0", "MUNICIPIO": "VILLARINO DE LOS AIRES", "AEREOS": "3"}, {"LATITUD": "40.291997", "PROVINCIA": "AVILA", "COMUNIDAD": "CASTILLA Y LEON", "LONGITUD": "-5.214121", "IDPIF": "2005050218", "FECHA": "2005-09-30", "TIME_EXT": "8740", "PESADOS": "4", "GASTOS_EXT": "0", "TIME_CTRL": "3010", "PERSONAL": "133", "SUPQUEMADA": "267.0", "HERIDOS": "0", "IDGRUPOCAUSA": "4", "COMARCA": "NAVARREDONDA DE GREDOS", "CAUSA": "Provocados por pastores y ganaderos para regenerar el pasto", "MUERTOS": "0", "PERDIDAS": "0", "MUNICIPIO": "S JUAN DE GREDOS", "AEREOS": "8"}, {"LATITUD": "42.637016", "PROVINCIA": "LEON", "COMUNIDAD": "CASTILLA Y LEON", "LONGITUD": "-6.176484", "IDPIF": "2005240763", "FECHA": "2005-08-31", "TIME_EXT": "1094", "PESADOS": "5", "GASTOS_EXT": "0", "TIME_CTRL": "259", "PERSONAL": "81", "SUPQUEMADA": "264.65", "HERIDOS": "0", "IDGRUPOCAUSA": "3", "COMARCA": "ASTORGA", "CAUSA": "FERROCARRIL", "MUERTOS": "0", "PERDIDAS": "0", "MUNICIPIO": "VILLAGATON", "AEREOS": "6"}, {"LATITUD": "40.688201", "PROVINCIA": "AVILA", "COMUNIDAD": "CASTILLA Y LEON", "LONGITUD": "-4.843256", "IDPIF": "2006050090", "FECHA": "2006-07-26", "TIME_EXT": "1500", "PESADOS": "6", "GASTOS_EXT": "0", "TIME_CTRL": "185", "PERSONAL": "100", "SUPQUEMADA": "264.0", "HERIDOS": "0", "IDGRUPOCAUSA": "3", "COMARCA": "AVILA", "CAUSA": "MOTORES Y M\u00c3\ufffdQUINAS (OTROS)", "MUERTOS": "0", "PERDIDAS": "0", "MUNICIPIO": "SANCHORREJA", "AEREOS": "7"}, {"LATITUD": "42.824779", "PROVINCIA": "LEON", "COMUNIDAD": "CASTILLA Y LEON", "LONGITUD": "-6.490871", "IDPIF": "2005240592", "FECHA": "2005-07-14", "TIME_EXT": "410", "PESADOS": "6", "GASTOS_EXT": "0", "TIME_CTRL": "350", "PERSONAL": "72", "SUPQUEMADA": "263.0", "HERIDOS": "0", "IDGRUPOCAUSA": "4", "COMARCA": "VEGA DE ESPINAREDA", "CAUSA": "Sin datos", "MUERTOS": "0", "PERDIDAS": "0", "MUNICIPIO": "PARAMO DEL SIL", "AEREOS": "4"}, {"LATITUD": "41.624973", "PROVINCIA": "ZAMORA", "COMUNIDAD": "CASTILLA Y LEON", "LONGITUD": "-6.121058", "IDPIF": "2006490197", "FECHA": "2006-08-07", "TIME_EXT": "1150", "PESADOS": "7", "GASTOS_EXT": "0", "TIME_CTRL": "565", "PERSONAL": "52", "SUPQUEMADA": "262.0", "HERIDOS": "0", "IDGRUPOCAUSA": "4", "COMARCA": "ALCA\u00c3\u2018ICES", "CAUSA": "Provocados contra el acotamiento de la caza", "MUERTOS": "0", "PERDIDAS": "0", "MUNICIPIO": "FONFRIA", "AEREOS": "3"}, {"LATITUD": "42.880386", "PROVINCIA": "LEON", "COMUNIDAD": "CASTILLA Y LEON", "LONGITUD": "-6.647832", "IDPIF": "2005240876", "FECHA": "2005-10-07", "TIME_EXT": "3146", "PESADOS": "1", "GASTOS_EXT": "0", "TIME_CTRL": "1710", "PERSONAL": "48", "SUPQUEMADA": "260.0", "HERIDOS": "0", "IDGRUPOCAUSA": "5", "COMARCA": "VEGA DE ESPINAREDA", "CAUSA": "CAUSA DESCONOCIDA", "MUERTOS": "0", "PERDIDAS": "0", "MUNICIPIO": "PERANZANES", "AEREOS": "9"}, {"LATITUD": "41.7338", "PROVINCIA": "ZAMORA", "COMUNIDAD": "CASTILLA Y LEON", "LONGITUD": "-6.094967", "IDPIF": "2008490498", "FECHA": "2008-08-24", "TIME_EXT": "2040", "PESADOS": "7", "GASTOS_EXT": "0", "TIME_CTRL": "1140", "PERSONAL": "48", "SUPQUEMADA": "260.0", "HERIDOS": "0", "IDGRUPOCAUSA": "4", "COMARCA": "TABARA", "CAUSA": "Provocados por venganzas", "MUERTOS": "0", "PERDIDAS": "0", "MUNICIPIO": "VEGALATRAVE", "AEREOS": "9"}, {"LATITUD": "40.679242", "PROVINCIA": "AVILA", "COMUNIDAD": "CASTILLA Y LEON", "LONGITUD": "-4.424885", "IDPIF": "2011050078", "FECHA": "2011-08-11", "TIME_EXT": "1550", "PESADOS": "7", "GASTOS_EXT": "0", "TIME_CTRL": "235", "PERSONAL": "71", "SUPQUEMADA": "254.89", "HERIDOS": "0", "IDGRUPOCAUSA": "2", "COMARCA": "AVILA", "CAUSA": "FUMADORES", "MUERTOS": "0", "PERDIDAS": "0", "MUNICIPIO": "STA MARIA DEL CUBILLO", "AEREOS": "5"}, {"LATITUD": "40.515158", "PROVINCIA": "SALAMANCA", "COMUNIDAD": "CASTILLA Y LEON", "LONGITUD": "-5.875352", "IDPIF": "2003370082", "FECHA": "2003-07-30", "TIME_EXT": "2055", "PESADOS": "10", "GASTOS_EXT": "0", "TIME_CTRL": "390", "PERSONAL": "195", "SUPQUEMADA": "253.55", "HERIDOS": "0", "IDGRUPOCAUSA": "4", "COMARCA": "BEJAR", "CAUSA": "Sin datos", "MUERTOS": "0", "PERDIDAS": "66531", "MUNICIPIO": "S ESTEBAN DE LA SIERRA", "AEREOS": "13"}, {"LATITUD": "42.06699", "PROVINCIA": "ZAMORA", "COMUNIDAD": "CASTILLA Y LEON", "LONGITUD": "-6.351206", "IDPIF": "2001490125", "FECHA": "2001-07-31", "TIME_EXT": "360", "PESADOS": "7", "GASTOS_EXT": "0", "TIME_CTRL": "300", "PERSONAL": "37", "SUPQUEMADA": "252.1", "HERIDOS": "0", "IDGRUPOCAUSA": "2", "COMARCA": "MOMBUEY", "CAUSA": "ESCAPE DE VERTEDERO", "MUERTOS": "0", "PERDIDAS": "0", "MUNICIPIO": "MANZANAL DE LOS INFANTES", "AEREOS": "5"}, {"LATITUD": "42.756331", "PROVINCIA": "LEON", "COMUNIDAD": "CASTILLA Y LEON", "LONGITUD": "-6.730954", "IDPIF": "2006240040", "FECHA": "2006-02-08", "TIME_EXT": "4601", "PESADOS": "0", "GASTOS_EXT": "0", "TIME_CTRL": "4380", "PERSONAL": "10", "SUPQUEMADA": "252.0", "HERIDOS": "0", "IDGRUPOCAUSA": "4", "COMARCA": "VEGA DE ESPINAREDA", "CAUSA": "Sin datos", "MUERTOS": "0", "PERDIDAS": "0", "MUNICIPIO": "VEGA DE ESPINAREDA", "AEREOS": "1"}, {"LATITUD": "41.953558", "PROVINCIA": "ZAMORA", "COMUNIDAD": "CASTILLA Y LEON", "LONGITUD": "-6.901142", "IDPIF": "2009490253", "FECHA": "2009-03-24", "TIME_EXT": "2450", "PESADOS": "4", "GASTOS_EXT": "0", "TIME_CTRL": "1610", "PERSONAL": "39", "SUPQUEMADA": "251.0", "HERIDOS": "0", "IDGRUPOCAUSA": "4", "COMARCA": "PUEBLA DE SANABRIA", "CAUSA": "Provocados por cazadores para facilitar la caza", "MUERTOS": "0", "PERDIDAS": "0", "MUNICIPIO": "HERMISENDE", "AEREOS": "0"}, {"LATITUD": "41.943596", "PROVINCIA": "ZAMORA", "COMUNIDAD": "CASTILLA Y LEON", "LONGITUD": "-6.708869", "IDPIF": "2009490589", "FECHA": "2009-10-04", "TIME_EXT": "2170", "PESADOS": "6", "GASTOS_EXT": "0", "TIME_CTRL": "940", "PERSONAL": "78", "SUPQUEMADA": "242.0", "HERIDOS": "0", "IDGRUPOCAUSA": "4", "COMARCA": "PUEBLA DE SANABRIA", "CAUSA": "Provocados por pastores y ganaderos para regenerar el pasto", "MUERTOS": "0", "PERDIDAS": "0", "MUNICIPIO": "PEDRALBA DE LA PRADERIA", "AEREOS": "2"}, {"LATITUD": "42.756331", "PROVINCIA": "LEON", "COMUNIDAD": "CASTILLA Y LEON", "LONGITUD": "-6.730954", "IDPIF": "2004241512", "FECHA": "2004-06-06", "TIME_EXT": "1945", "PESADOS": "1", "GASTOS_EXT": "0", "TIME_CTRL": "1890", "PERSONAL": "36", "SUPQUEMADA": "239.0", "HERIDOS": "0", "IDGRUPOCAUSA": "1", "COMARCA": "VEGA DE ESPINAREDA", "CAUSA": "RAYO", "MUERTOS": "0", "PERDIDAS": "13056", "MUNICIPIO": "VEGA DE ESPINAREDA", "AEREOS": "1"}, {"LATITUD": "43.132481", "PROVINCIA": "BURGOS", "COMUNIDAD": "CASTILLA Y LEON", "LONGITUD": "-3.672198", "IDPIF": "2008090008", "FECHA": "2008-02-09", "TIME_EXT": "3360", "PESADOS": "1", "GASTOS_EXT": "0", "TIME_CTRL": "3240", "PERSONAL": "17", "SUPQUEMADA": "236.0", "HERIDOS": "0", "IDGRUPOCAUSA": "2", "COMARCA": "ESPINOSA DE LOS MONTEROS", "CAUSA": "QUEMA PARA REG. PASTOS (SIN ESPECIFICAR)", "MUERTOS": "0", "PERDIDAS": "0", "MUNICIPIO": "ESPINOSA DE LOS MONTEROS", "AEREOS": "1"}, {"LATITUD": "42.987254", "PROVINCIA": "LEON", "COMUNIDAD": "CASTILLA Y LEON", "LONGITUD": "-6.018022", "IDPIF": "2009240703", "FECHA": "2009-09-11", "TIME_EXT": "4379", "PESADOS": "1", "GASTOS_EXT": "0", "TIME_CTRL": "4047", "PERSONAL": "22", "SUPQUEMADA": "236.0", "HERIDOS": "0", "IDGRUPOCAUSA": "4", "COMARCA": "VILLABLINO-HUERGAS DE BABIA", "CAUSA": "Sin datos", "MUERTOS": "0", "PERDIDAS": "0", "MUNICIPIO": "S EMILIANO", "AEREOS": "8"}, {"LATITUD": "42.265003", "PROVINCIA": "LEON", "COMUNIDAD": "CASTILLA Y LEON", "LONGITUD": "-6.640489", "IDPIF": "2001240484", "FECHA": "2001-09-12", "TIME_EXT": "2730", "PESADOS": "1", "GASTOS_EXT": "0", "TIME_CTRL": "1470", "PERSONAL": "10", "SUPQUEMADA": "230.0", "HERIDOS": "0", "IDGRUPOCAUSA": "4", "COMARCA": "TRUCHAS", "CAUSA": "Sin datos", "MUERTOS": "0", "PERDIDAS": "0", "MUNICIPIO": "ENCINEDO", "AEREOS": "1"}, {"LATITUD": "42.523235", "PROVINCIA": "LEON", "COMUNIDAD": "CASTILLA Y LEON", "LONGITUD": "-7.016844", "IDPIF": "2011240597", "FECHA": "2011-10-19", "TIME_EXT": "5749", "PESADOS": "4", "GASTOS_EXT": "0", "TIME_CTRL": "1743", "PERSONAL": "83", "SUPQUEMADA": "228.0", "HERIDOS": "0", "IDGRUPOCAUSA": "4", "COMARCA": "VILLAFRANCA", "CAUSA": "Sin datos", "MUERTOS": "0", "PERDIDAS": "0", "MUNICIPIO": "OENCIA", "AEREOS": "5"}, {"LATITUD": "42.159817", "PROVINCIA": "ZAMORA", "COMUNIDAD": "CASTILLA Y LEON", "LONGITUD": "-6.844835", "IDPIF": "2001490408", "FECHA": "2001-12-16", "TIME_EXT": "3900", "PESADOS": "0", "GASTOS_EXT": "0", "TIME_CTRL": "3000", "PERSONAL": "33", "SUPQUEMADA": "227.0", "HERIDOS": "0", "IDGRUPOCAUSA": "4", "COMARCA": "EL PUENTE", "CAUSA": "Provocados por cazadores para facilitar la caza", "MUERTOS": "0", "PERDIDAS": "0", "MUNICIPIO": "PORTO", "AEREOS": "0"}, {"LATITUD": "41.987634", "PROVINCIA": "ZAMORA", "COMUNIDAD": "CASTILLA Y LEON", "LONGITUD": "-6.843841", "IDPIF": "2011490423", "FECHA": "2011-10-19", "TIME_EXT": "3300", "PESADOS": "3", "GASTOS_EXT": "0", "TIME_CTRL": "1995", "PERSONAL": "8", "SUPQUEMADA": "226.5", "HERIDOS": "0", "IDGRUPOCAUSA": "4", "COMARCA": "PUEBLA DE SANABRIA", "CAUSA": "Provocados por cazadores para facilitar la caza", "MUERTOS": "0", "PERDIDAS": "0", "MUNICIPIO": "HERMISENDE", "AEREOS": "2"}, {"LATITUD": "40.466051", "PROVINCIA": "SALAMANCA", "COMUNIDAD": "CASTILLA Y LEON", "LONGITUD": "-6.031025", "IDPIF": "2003370099", "FECHA": "2003-08-04", "TIME_EXT": "3180", "PESADOS": "8", "GASTOS_EXT": "0", "TIME_CTRL": "1680", "PERSONAL": "181", "SUPQUEMADA": "222.66", "HERIDOS": "0", "IDGRUPOCAUSA": "4", "COMARCA": "LA ALBERCA", "CAUSA": "Sin datos", "MUERTOS": "0", "PERDIDAS": "371990", "MUNICIPIO": "CEPEDA", "AEREOS": "4"}, {"LATITUD": "41.483876", "PROVINCIA": "ZAMORA", "COMUNIDAD": "CASTILLA Y LEON", "LONGITUD": "-5.84752", "IDPIF": "2004490325", "FECHA": "2004-06-30", "TIME_EXT": "355", "PESADOS": "4", "GASTOS_EXT": "0", "TIME_CTRL": "215", "PERSONAL": "35", "SUPQUEMADA": "222.0", "HERIDOS": "0", "IDGRUPOCAUSA": "4", "COMARCA": "ZAMORA", "CAUSA": "Sin datos", "MUERTOS": "0", "PERDIDAS": "0", "MUNICIPIO": "ZAMORA", "AEREOS": "5"}, {"LATITUD": "42.580532", "PROVINCIA": "LEON", "COMUNIDAD": "CASTILLA Y LEON", "LONGITUD": "-6.442095", "IDPIF": "2001240528", "FECHA": "2001-09-16", "TIME_EXT": "1755", "PESADOS": "0", "GASTOS_EXT": "5698", "TIME_CTRL": "1325", "PERSONAL": "37", "SUPQUEMADA": "220.0", "HERIDOS": "0", "IDGRUPOCAUSA": "3", "COMARCA": "BEMBIBRE", "CAUSA": "FERROCARRIL", "MUERTOS": "0", "PERDIDAS": "2120333", "MUNICIPIO": "CASTROPODAME", "AEREOS": "1"}, {"LATITUD": "42.168423", "PROVINCIA": "ZAMORA", "COMUNIDAD": "CASTILLA Y LEON", "LONGITUD": "-6.935126", "IDPIF": "2004490037", "FECHA": "2004-02-10", "TIME_EXT": "1620", "PESADOS": "0", "GASTOS_EXT": "0", "TIME_CTRL": "1440", "PERSONAL": "8", "SUPQUEMADA": "220.0", "HERIDOS": "0", "IDGRUPOCAUSA": "4", "COMARCA": "EL PUENTE", "CAUSA": "Provocados por pastores y ganaderos para regenerar el pasto", "MUERTOS": "0", "PERDIDAS": "0", "MUNICIPIO": "PORTO", "AEREOS": "0"}, {"LATITUD": "42.880386", "PROVINCIA": "LEON", "COMUNIDAD": "CASTILLA Y LEON", "LONGITUD": "-6.647832", "IDPIF": "2006240043", "FECHA": "2006-02-08", "TIME_EXT": "1860", "PESADOS": "1", "GASTOS_EXT": "0", "TIME_CTRL": "1755", "PERSONAL": "16", "SUPQUEMADA": "220.0", "HERIDOS": "0", "IDGRUPOCAUSA": "4", "COMARCA": "VEGA DE ESPINAREDA", "CAUSA": "Provocados por cazadores para facilitar la caza", "MUERTOS": "0", "PERDIDAS": "0", "MUNICIPIO": "PERANZANES", "AEREOS": "0"}, {"LATITUD": "42.140627", "PROVINCIA": "ZAMORA", "COMUNIDAD": "CASTILLA Y LEON", "LONGITUD": "-6.470902", "IDPIF": "2008490468", "FECHA": "2008-11-23", "TIME_EXT": "1328", "PESADOS": "5", "GASTOS_EXT": "0", "TIME_CTRL": "940", "PERSONAL": "94", "SUPQUEMADA": "220.0", "HERIDOS": "0", "IDGRUPOCAUSA": "4", "COMARCA": "PUEBLA DE SANABRIA", "CAUSA": "Provocados por cazadores para facilitar la caza", "MUERTOS": "0", "PERDIDAS": "0", "MUNICIPIO": "ROSINOS DE LA REQUEJADA", "AEREOS": "0"}, {"LATITUD": "41.943955", "PROVINCIA": "ZAMORA", "COMUNIDAD": "CASTILLA Y LEON", "LONGITUD": "-5.99842", "IDPIF": "2007490184", "FECHA": "2007-09-07", "TIME_EXT": "435", "PESADOS": "6", "GASTOS_EXT": "0", "TIME_CTRL": "327", "PERSONAL": "32", "SUPQUEMADA": "219.63", "HERIDOS": "0", "IDGRUPOCAUSA": "4", "COMARCA": "BENAVENTE", "CAUSA": "Sin datos", "MUERTOS": "0", "PERDIDAS": "0", "MUNICIPIO": "VILLANUEVA DE LAS PERAS", "AEREOS": "9"}, {"LATITUD": "40.385842", "PROVINCIA": "AVILA", "COMUNIDAD": "CASTILLA Y LEON", "LONGITUD": "-4.78864", "IDPIF": "2011050148", "FECHA": "2011-09-23", "TIME_EXT": "2400", "PESADOS": "12", "GASTOS_EXT": "0", "TIME_CTRL": "970", "PERSONAL": "214", "SUPQUEMADA": "219.0", "HERIDOS": "0", "IDGRUPOCAUSA": "4", "COMARCA": "EL TIEMBLO", "CAUSA": "Sin datos", "MUERTOS": "0", "PERDIDAS": "0", "MUNICIPIO": "BURGOHONDO", "AEREOS": "7"}, {"LATITUD": "42.637016", "PROVINCIA": "LEON", "COMUNIDAD": "CASTILLA Y LEON", "LONGITUD": "-6.176484", "IDPIF": "2001240231", "FECHA": "2001-08-04", "TIME_EXT": "4305", "PESADOS": "6", "GASTOS_EXT": "6455", "TIME_CTRL": "465", "PERSONAL": "54", "SUPQUEMADA": "215.0", "HERIDOS": "0", "IDGRUPOCAUSA": "4", "COMARCA": "ASTORGA", "CAUSA": "Provocados por pastores y ganaderos para regenerar el pasto", "MUERTOS": "0", "PERDIDAS": "0", "MUNICIPIO": "VILLAGATON", "AEREOS": "2"}, {"LATITUD": "42.182344", "PROVINCIA": "ZAMORA", "COMUNIDAD": "CASTILLA Y LEON", "LONGITUD": "-6.683289", "IDPIF": "2005490427", "FECHA": "2005-03-19", "TIME_EXT": "1335", "PESADOS": "0", "GASTOS_EXT": "1996", "TIME_CTRL": "1320", "PERSONAL": "28", "SUPQUEMADA": "215.0", "HERIDOS": "0", "IDGRUPOCAUSA": "4", "COMARCA": "EL PUENTE", "CAUSA": "Sin datos", "MUERTOS": "0", "PERDIDAS": "0", "MUNICIPIO": "S JUSTO", "AEREOS": "3"}, {"LATITUD": "41.881234", "PROVINCIA": "SORIA", "COMUNIDAD": "CASTILLA Y LEON", "LONGITUD": "-2.148928", "IDPIF": "2005420035", "FECHA": "2005-05-02", "TIME_EXT": "1810", "PESADOS": "13", "GASTOS_EXT": "43412", "TIME_CTRL": "589", "PERSONAL": "132", "SUPQUEMADA": "214.88", "HERIDOS": "0", "IDGRUPOCAUSA": "2", "COMARCA": "AGREDA", "CAUSA": "QUEMA AGR\u00c3\ufffdCOLA (OTRAS QUEMAS AGR\u00c3\ufffdCOLAS)", "MUERTOS": "0", "PERDIDAS": "0", "MUNICIPIO": "MAGA\u00c3\u2018A", "AEREOS": "3"}, {"LATITUD": "42.350315", "PROVINCIA": "LEON", "COMUNIDAD": "CASTILLA Y LEON", "LONGITUD": "-6.5445", "IDPIF": "2005240803", "FECHA": "2005-09-15", "TIME_EXT": "365", "PESADOS": "5", "GASTOS_EXT": "0", "TIME_CTRL": "0", "PERSONAL": "105", "SUPQUEMADA": "213.0", "HERIDOS": "0", "IDGRUPOCAUSA": "4", "COMARCA": "TRUCHAS", "CAUSA": "Sin datos", "MUERTOS": "0", "PERDIDAS": "0", "MUNICIPIO": "CASTRILLO DE CABRERA", "AEREOS": "8"}, {"LATITUD": "42.18248", "PROVINCIA": "ZAMORA", "COMUNIDAD": "CASTILLA Y LEON", "LONGITUD": "-6.763611", "IDPIF": "2005490702", "FECHA": "2005-08-20", "TIME_EXT": "5040", "PESADOS": "0", "GASTOS_EXT": "5668", "TIME_CTRL": "3600", "PERSONAL": "26", "SUPQUEMADA": "212.0", "HERIDOS": "0", "IDGRUPOCAUSA": "4", "COMARCA": "EL PUENTE", "CAUSA": "Sin datos", "MUERTOS": "0", "PERDIDAS": "0", "MUNICIPIO": "PORTO", "AEREOS": "4"}, {"LATITUD": "41.977936", "PROVINCIA": "ZAMORA", "COMUNIDAD": "CASTILLA Y LEON", "LONGITUD": "-6.735892", "IDPIF": "2007490214", "FECHA": "2007-11-02", "TIME_EXT": "1820", "PESADOS": "2", "GASTOS_EXT": "0", "TIME_CTRL": "1520", "PERSONAL": "39", "SUPQUEMADA": "211.0", "HERIDOS": "0", "IDGRUPOCAUSA": "4", "COMARCA": "PUEBLA DE SANABRIA", "CAUSA": "Sin datos", "MUERTOS": "0", "PERDIDAS": "0", "MUNICIPIO": "PEDRALBA DE LA PRADERIA", "AEREOS": "6"}, {"LATITUD": "42.717219", "PROVINCIA": "LEON", "COMUNIDAD": "CASTILLA Y LEON", "LONGITUD": "-6.917798", "IDPIF": "2007240288", "FECHA": "2007-11-10", "TIME_EXT": "0", "PESADOS": "2", "GASTOS_EXT": "0", "TIME_CTRL": "0", "PERSONAL": "19", "SUPQUEMADA": "210.53", "HERIDOS": "0", "IDGRUPOCAUSA": "2", "COMARCA": "VILLAFRANCA", "CAUSA": "QUEMA PARA REG. PASTOS (SIN ESPECIFICAR)", "MUERTOS": "0", "PERDIDAS": "0", "MUNICIPIO": "BALBOA", "AEREOS": "4"}, {"LATITUD": "42.804061", "PROVINCIA": "LEON", "COMUNIDAD": "CASTILLA Y LEON", "LONGITUD": "-5.617664", "IDPIF": "2008240319", "FECHA": "2008-04-05", "TIME_EXT": "1166", "PESADOS": "1", "GASTOS_EXT": "0", "TIME_CTRL": "1141", "PERSONAL": "25", "SUPQUEMADA": "210.0", "HERIDOS": "0", "IDGRUPOCAUSA": "2", "COMARCA": "LA VECILLA-LA ROBLA", "CAUSA": "QUEMA PARA REG. PASTOS (SIN ESPECIFICAR)", "MUERTOS": "0", "PERDIDAS": "0", "MUNICIPIO": "ROBLA LA", "AEREOS": "7"}, {"LATITUD": "42.613307", "PROVINCIA": "LEON", "COMUNIDAD": "CASTILLA Y LEON", "LONGITUD": "-6.940037", "IDPIF": "2009240278", "FECHA": "2009-03-23", "TIME_EXT": "1520", "PESADOS": "0", "GASTOS_EXT": "0", "TIME_CTRL": "870", "PERSONAL": "22", "SUPQUEMADA": "207.3", "HERIDOS": "0", "IDGRUPOCAUSA": "4", "COMARCA": "VILLAFRANCA", "CAUSA": "Sin datos", "MUERTOS": "0", "PERDIDAS": "0", "MUNICIPIO": "BARJAS", "AEREOS": "1"}, {"LATITUD": "40.75228", "PROVINCIA": "SALAMANCA", "COMUNIDAD": "CASTILLA Y LEON", "LONGITUD": "-6.658158", "IDPIF": "2010370102", "FECHA": "2010-07-26", "TIME_EXT": "1740", "PESADOS": "11", "GASTOS_EXT": "0", "TIME_CTRL": "481", "PERSONAL": "113", "SUPQUEMADA": "203.0", "HERIDOS": "0", "IDGRUPOCAUSA": "4", "COMARCA": "CIUDAD RODRIGO", "CAUSA": "Represalia al reducirse las inversiones p\u00c3\u00bablicas en los montes", "MUERTOS": "0", "PERDIDAS": "0", "MUNICIPIO": "CASTILLEJO DE MARTIN VIEJO", "AEREOS": "11"}, {"LATITUD": "41.203997", "PROVINCIA": "VALLADOLID", "COMUNIDAD": "CASTILLA Y LEON", "LONGITUD": "-4.743261", "IDPIF": "2005470035", "FECHA": "2005-06-11", "TIME_EXT": "410", "PESADOS": "13", "GASTOS_EXT": "6688", "TIME_CTRL": "380", "PERSONAL": "38", "SUPQUEMADA": "202.0", "HERIDOS": "0", "IDGRUPOCAUSA": "1", "COMARCA": "OLMEDO", "CAUSA": "RAYO", "MUERTOS": "0", "PERDIDAS": "66176", "MUNICIPIO": "OLMEDO", "AEREOS": "3"}, {"LATITUD": "41.972805", "PROVINCIA": "ZAMORA", "COMUNIDAD": "CASTILLA Y LEON", "LONGITUD": "-6.872993", "IDPIF": "2006490286", "FECHA": "2006-09-20", "TIME_EXT": "2085", "PESADOS": "1", "GASTOS_EXT": "16023", "TIME_CTRL": "2055", "PERSONAL": "49", "SUPQUEMADA": "202.0", "HERIDOS": "0", "IDGRUPOCAUSA": "4", "COMARCA": "PUEBLA DE SANABRIA", "CAUSA": "Sin datos", "MUERTOS": "0", "PERDIDAS": "0", "MUNICIPIO": "HERMISENDE", "AEREOS": "6"}, {"LATITUD": "42.058344", "PROVINCIA": "ZAMORA", "COMUNIDAD": "CASTILLA Y LEON", "LONGITUD": "-6.87804", "IDPIF": "2011490458", "FECHA": "2011-12-28", "TIME_EXT": "993", "PESADOS": "1", "GASTOS_EXT": "0", "TIME_CTRL": "693", "PERSONAL": "17", "SUPQUEMADA": "201.7", "HERIDOS": "0", "IDGRUPOCAUSA": "4", "COMARCA": "PUEBLA DE SANABRIA", "CAUSA": "Sin datos", "MUERTOS": "0", "PERDIDAS": "0", "MUNICIPIO": "LUBIAN", "AEREOS": "1"}, {"LATITUD": "42.159817", "PROVINCIA": "ZAMORA", "COMUNIDAD": "CASTILLA Y LEON", "LONGITUD": "-6.844835", "IDPIF": "2001490405", "FECHA": "2001-12-16", "TIME_EXT": "4110", "PESADOS": "0", "GASTOS_EXT": "0", "TIME_CTRL": "3960", "PERSONAL": "14", "SUPQUEMADA": "200.0", "HERIDOS": "0", "IDGRUPOCAUSA": "4", "COMARCA": "EL PUENTE", "CAUSA": "Provocados por cazadores para facilitar la caza", "MUERTOS": "0", "PERDIDAS": "0", "MUNICIPIO": "PORTO", "AEREOS": "0"}, {"LATITUD": "42.159817", "PROVINCIA": "ZAMORA", "COMUNIDAD": "CASTILLA Y LEON", "LONGITUD": "-6.844835", "IDPIF": "2001490409", "FECHA": "2001-12-16", "TIME_EXT": "4110", "PESADOS": "0", "GASTOS_EXT": "0", "TIME_CTRL": "3960", "PERSONAL": "29", "SUPQUEMADA": "200.0", "HERIDOS": "0", "IDGRUPOCAUSA": "4", "COMARCA": "EL PUENTE", "CAUSA": "Provocados por cazadores para facilitar la caza", "MUERTOS": "0", "PERDIDAS": "0", "MUNICIPIO": "PORTO", "AEREOS": "1"}, {"LATITUD": "41.36641", "PROVINCIA": "ZAMORA", "COMUNIDAD": "CASTILLA Y LEON", "LONGITUD": "-6.248733", "IDPIF": "2004490407", "FECHA": "2004-07-28", "TIME_EXT": "300", "PESADOS": "3", "GASTOS_EXT": "0", "TIME_CTRL": "285", "PERSONAL": "123", "SUPQUEMADA": "200.0", "HERIDOS": "0", "IDGRUPOCAUSA": "4", "COMARCA": "BERMILLO DE SAYAGO", "CAUSA": "Sin datos", "MUERTOS": "0", "PERDIDAS": "273751", "MUNICIPIO": "MUGA DE SAYAGO", "AEREOS": "4"}, {"LATITUD": "42.265003", "PROVINCIA": "LEON", "COMUNIDAD": "CASTILLA Y LEON", "LONGITUD": "-6.640489", "IDPIF": "2006240076", "FECHA": "2006-02-12", "TIME_EXT": "2650", "PESADOS": "0", "GASTOS_EXT": "0", "TIME_CTRL": "2590", "PERSONAL": "10", "SUPQUEMADA": "200.0", "HERIDOS": "0", "IDGRUPOCAUSA": "4", "COMARCA": "TRUCHAS", "CAUSA": "Provocados por cazadores para facilitar la caza", "MUERTOS": "0", "PERDIDAS": "0", "MUNICIPIO": "ENCINEDO", "AEREOS": "0"}, {"LATITUD": "42.265003", "PROVINCIA": "LEON", "COMUNIDAD": "CASTILLA Y LEON", "LONGITUD": "-6.640489", "IDPIF": "2006240078", "FECHA": "2006-02-12", "TIME_EXT": "0", "PESADOS": "0", "GASTOS_EXT": "0", "TIME_CTRL": "0", "PERSONAL": "5", "SUPQUEMADA": "200.0", "HERIDOS": "0", "IDGRUPOCAUSA": "4", "COMARCA": "TRUCHAS", "CAUSA": "Provocados por cazadores para facilitar la caza", "MUERTOS": "0", "PERDIDAS": "0", "MUNICIPIO": "ENCINEDO", "AEREOS": "0"}, {"LATITUD": "42.268979", "PROVINCIA": "LEON", "COMUNIDAD": "CASTILLA Y LEON", "LONGITUD": "-6.414877", "IDPIF": "2008240021", "FECHA": "2008-01-24", "TIME_EXT": "1799", "PESADOS": "0", "GASTOS_EXT": "0", "TIME_CTRL": "1440", "PERSONAL": "17", "SUPQUEMADA": "200.0", "HERIDOS": "0", "IDGRUPOCAUSA": "4", "COMARCA": "TRUCHAS", "CAUSA": "Provocados por cazadores para facilitar la caza", "MUERTOS": "0", "PERDIDAS": "0", "MUNICIPIO": "TRUCHAS", "AEREOS": "1"}, {"LATITUD": "42.052388", "PROVINCIA": "ZAMORA", "COMUNIDAD": "CASTILLA Y LEON", "LONGITUD": "-6.954046", "IDPIF": "2005490165", "FECHA": "2005-02-12", "TIME_EXT": "1560", "PESADOS": "2", "GASTOS_EXT": "1913", "TIME_CTRL": "1260", "PERSONAL": "38", "SUPQUEMADA": "197.0", "HERIDOS": "0", "IDGRUPOCAUSA": "4", "COMARCA": "PUEBLA DE SANABRIA", "CAUSA": "Provocados por pastores y ganaderos para regenerar el pasto", "MUERTOS": "0", "PERDIDAS": "0", "MUNICIPIO": "LUBIAN", "AEREOS": "2"}, {"LATITUD": "42.738739", "PROVINCIA": "LEON", "COMUNIDAD": "CASTILLA Y LEON", "LONGITUD": "-6.807401", "IDPIF": "2011240584", "FECHA": "2011-10-17", "TIME_EXT": "5982", "PESADOS": "3", "GASTOS_EXT": "0", "TIME_CTRL": "4103", "PERSONAL": "35", "SUPQUEMADA": "191.4", "HERIDOS": "0", "IDGRUPOCAUSA": "4", "COMARCA": "VILLAFRANCA", "CAUSA": "Sin datos", "MUERTOS": "0", "PERDIDAS": "0", "MUNICIPIO": "VILLAFRANCA DEL BIERZO", "AEREOS": "1"}, {"LATITUD": "40.326472", "PROVINCIA": "AVILA", "COMUNIDAD": "CASTILLA Y LEON", "LONGITUD": "-5.276251", "IDPIF": "2008050013", "FECHA": "2008-02-08", "TIME_EXT": "1050", "PESADOS": "2", "GASTOS_EXT": "0", "TIME_CTRL": "470", "PERSONAL": "89", "SUPQUEMADA": "190.75", "HERIDOS": "0", "IDGRUPOCAUSA": "4", "COMARCA": "EL BARCO DE AVILA", "CAUSA": "Sin datos", "MUERTOS": "0", "PERDIDAS": "0", "MUNICIPIO": "NAVALPERAL DE TORMES", "AEREOS": "3"}, {"LATITUD": "41.036998", "PROVINCIA": "SALAMANCA", "COMUNIDAD": "CASTILLA Y LEON", "LONGITUD": "-6.210112", "IDPIF": "2001370109", "FECHA": "2001-08-14", "TIME_EXT": "790", "PESADOS": "14", "GASTOS_EXT": "0", "TIME_CTRL": "450", "PERSONAL": "192", "SUPQUEMADA": "190.0", "HERIDOS": "0", "IDGRUPOCAUSA": "3", "COMARCA": "VITIGUDINO", "CAUSA": "MOTORES Y M\u00c3\ufffdQUINAS (SIN ESPECIFICAR)", "MUERTOS": "0", "PERDIDAS": "84006", "MUNICIPIO": "VILLAR DE PERALONSO", "AEREOS": "4"}, {"LATITUD": "42.80839", "PROVINCIA": "LEON", "COMUNIDAD": "CASTILLA Y LEON", "LONGITUD": "-6.019478", "IDPIF": "2005240626", "FECHA": "2005-07-21", "TIME_EXT": "1275", "PESADOS": "6", "GASTOS_EXT": "0", "TIME_CTRL": "675", "PERSONAL": "32", "SUPQUEMADA": "190.0", "HERIDOS": "0", "IDGRUPOCAUSA": "4", "COMARCA": "CANALES-LA MAGDALENA", "CAUSA": "Provocados por pastores y ganaderos para regenerar el pasto", "MUERTOS": "0", "PERDIDAS": "0", "MUNICIPIO": "RIELLO", "AEREOS": "6"}, {"LATITUD": "42.649719", "PROVINCIA": "LEON", "COMUNIDAD": "CASTILLA Y LEON", "LONGITUD": "-6.871984", "IDPIF": "2005240671", "FECHA": "2005-08-06", "TIME_EXT": "3408", "PESADOS": "6", "GASTOS_EXT": "0", "TIME_CTRL": "1893", "PERSONAL": "123", "SUPQUEMADA": "190.0", "HERIDOS": "0", "IDGRUPOCAUSA": "4", "COMARCA": "VILLAFRANCA", "CAUSA": "Sin datos", "MUERTOS": "0", "PERDIDAS": "0", "MUNICIPIO": "TRABADELO", "AEREOS": "10"}, {"LATITUD": "41.648461", "PROVINCIA": "ZAMORA", "COMUNIDAD": "CASTILLA Y LEON", "LONGITUD": "-6.211242", "IDPIF": "2006490263", "FECHA": "2006-09-09", "TIME_EXT": "2883", "PESADOS": "6", "GASTOS_EXT": "27363", "TIME_CTRL": "1323", "PERSONAL": "214", "SUPQUEMADA": "190.0", "HERIDOS": "0", "IDGRUPOCAUSA": "1", "COMARCA": "ALCA\u00c3\u2018ICES", "CAUSA": "RAYO", "MUERTOS": "0", "PERDIDAS": "0", "MUNICIPIO": "FONFRIA", "AEREOS": "7"}, {"LATITUD": "42.708244", "PROVINCIA": "LEON", "COMUNIDAD": "CASTILLA Y LEON", "LONGITUD": "-5.903507", "IDPIF": "2005240330", "FECHA": "2005-02-18", "TIME_EXT": "790", "PESADOS": "3", "GASTOS_EXT": "0", "TIME_CTRL": "714", "PERSONAL": "17", "SUPQUEMADA": "188.0", "HERIDOS": "0", "IDGRUPOCAUSA": "4", "COMARCA": "BENAVIDES DE ORBIGO", "CAUSA": "Sin datos", "MUERTOS": "0", "PERDIDAS": "0", "MUNICIPIO": "VALDESAMARIO", "AEREOS": "1"}, {"LATITUD": "42.546098", "PROVINCIA": "LEON", "COMUNIDAD": "CASTILLA Y LEON", "LONGITUD": "-6.992083", "IDPIF": "2006240463", "FECHA": "2006-09-08", "TIME_EXT": "4252", "PESADOS": "1", "GASTOS_EXT": "0", "TIME_CTRL": "3824", "PERSONAL": "28", "SUPQUEMADA": "186.0", "HERIDOS": "0", "IDGRUPOCAUSA": "4", "COMARCA": "VILLAFRANCA", "CAUSA": "Sin datos", "MUERTOS": "0", "PERDIDAS": "0", "MUNICIPIO": "OENCIA", "AEREOS": "6"}, {"LATITUD": "42.268979", "PROVINCIA": "LEON", "COMUNIDAD": "CASTILLA Y LEON", "LONGITUD": "-6.414877", "IDPIF": "2001240437", "FECHA": "2001-09-07", "TIME_EXT": "8900", "PESADOS": "2", "GASTOS_EXT": "5079", "TIME_CTRL": "4610", "PERSONAL": "92", "SUPQUEMADA": "184.5", "HERIDOS": "0", "IDGRUPOCAUSA": "4", "COMARCA": "TRUCHAS", "CAUSA": "Provocados por pastores y ganaderos para regenerar el pasto", "MUERTOS": "0", "PERDIDAS": "0", "MUNICIPIO": "TRUCHAS", "AEREOS": "7"}, {"LATITUD": "42.764484", "PROVINCIA": "LEON", "COMUNIDAD": "CASTILLA Y LEON", "LONGITUD": "-6.876631", "IDPIF": "2011240529", "FECHA": "2011-10-06", "TIME_EXT": "8697", "PESADOS": "4", "GASTOS_EXT": "0", "TIME_CTRL": "2864", "PERSONAL": "113", "SUPQUEMADA": "181.7", "HERIDOS": "0", "IDGRUPOCAUSA": "4", "COMARCA": "VILLAFRANCA", "CAUSA": "Sin datos", "MUERTOS": "0", "PERDIDAS": "0", "MUNICIPIO": "VILLAFRANCA DEL BIERZO", "AEREOS": "4"}, {"LATITUD": "42.635844", "PROVINCIA": "LEON", "COMUNIDAD": "CASTILLA Y LEON", "LONGITUD": "-6.797589", "IDPIF": "2009240695", "FECHA": "2009-09-10", "TIME_EXT": "2798", "PESADOS": "9", "GASTOS_EXT": "0", "TIME_CTRL": "2311", "PERSONAL": "202", "SUPQUEMADA": "181.0", "HERIDOS": "0", "IDGRUPOCAUSA": "4", "COMARCA": "VILLAFRANCA", "CAUSA": "Sin datos", "MUERTOS": "0", "PERDIDAS": "0", "MUNICIPIO": "VILLAFRANCA DEL BIERZO", "AEREOS": "11"}, {"LATITUD": "42.637016", "PROVINCIA": "LEON", "COMUNIDAD": "CASTILLA Y LEON", "LONGITUD": "-6.176484", "IDPIF": "2001240291", "FECHA": "2001-08-12", "TIME_EXT": "493", "PESADOS": "6", "GASTOS_EXT": "10326", "TIME_CTRL": "452", "PERSONAL": "77", "SUPQUEMADA": "180.0", "HERIDOS": "0", "IDGRUPOCAUSA": "4", "COMARCA": "ASTORGA", "CAUSA": "Provocados por pastores y ganaderos para regenerar el pasto", "MUERTOS": "0", "PERDIDAS": "14322", "MUNICIPIO": "VILLAGATON", "AEREOS": "2"}, {"LATITUD": "42.876039", "PROVINCIA": "LEON", "COMUNIDAD": "CASTILLA Y LEON", "LONGITUD": "-5.690063", "IDPIF": "2003240249", "FECHA": "2003-08-06", "TIME_EXT": "0", "PESADOS": "1", "GASTOS_EXT": "0", "TIME_CTRL": "0", "PERSONAL": "27", "SUPQUEMADA": "180.0", "HERIDOS": "0", "IDGRUPOCAUSA": "4", "COMARCA": "LA VECILLA-LA ROBLA", "CAUSA": "Sin datos", "MUERTOS": "0", "PERDIDAS": "8961", "MUNICIPIO": "POLA DE GORDON LA", "AEREOS": "1"}, {"LATITUD": "42.041959", "PROVINCIA": "ZAMORA", "COMUNIDAD": "CASTILLA Y LEON", "LONGITUD": "-6.634803", "IDPIF": "2004490439", "FECHA": "2004-08-15", "TIME_EXT": "500", "PESADOS": "7", "GASTOS_EXT": "0", "TIME_CTRL": "440", "PERSONAL": "18", "SUPQUEMADA": "180.0", "HERIDOS": "0", "IDGRUPOCAUSA": "4", "COMARCA": "PUEBLA DE SANABRIA", "CAUSA": "Sin datos", "MUERTOS": "0", "PERDIDAS": "0", "MUNICIPIO": "PUEBLA DE SANABRIA", "AEREOS": "5"}, {"LATITUD": "42.083742", "PROVINCIA": "ZAMORA", "COMUNIDAD": "CASTILLA Y LEON", "LONGITUD": "-6.954545", "IDPIF": "2005490022", "FECHA": "2005-01-22", "TIME_EXT": "4560", "PESADOS": "0", "GASTOS_EXT": "0", "TIME_CTRL": "4320", "PERSONAL": "9", "SUPQUEMADA": "180.0", "HERIDOS": "0", "IDGRUPOCAUSA": "4", "COMARCA": "EL PUENTE", "CAUSA": "Provocados por pastores y ganaderos para regenerar el pasto", "MUERTOS": "0", "PERDIDAS": "0", "MUNICIPIO": "PORTO", "AEREOS": "0"}, {"LATITUD": "42.683312", "PROVINCIA": "LEON", "COMUNIDAD": "CASTILLA Y LEON", "LONGITUD": "-6.96321", "IDPIF": "2011240535", "FECHA": "2011-10-08", "TIME_EXT": "1345", "PESADOS": "2", "GASTOS_EXT": "0", "TIME_CTRL": "1070", "PERSONAL": "28", "SUPQUEMADA": "178.92", "HERIDOS": "0", "IDGRUPOCAUSA": "4", "COMARCA": "VILLAFRANCA", "CAUSA": "Sin datos", "MUERTOS": "0", "PERDIDAS": "0", "MUNICIPIO": "VEGA DE VALCARCE", "AEREOS": "1"}, {"LATITUD": "40.390014", "PROVINCIA": "AVILA", "COMUNIDAD": "CASTILLA Y LEON", "LONGITUD": "-5.29678", "IDPIF": "2008050066", "FECHA": "2008-03-21", "TIME_EXT": "990", "PESADOS": "1", "GASTOS_EXT": "0", "TIME_CTRL": "780", "PERSONAL": "41", "SUPQUEMADA": "178.4", "HERIDOS": "0", "IDGRUPOCAUSA": "4", "COMARCA": "EL BARCO DE AVILA", "CAUSA": "Provocados por pastores y ganaderos para regenerar el pasto", "MUERTOS": "0", "PERDIDAS": "0", "MUNICIPIO": "NAVALPERAL DE TORMES", "AEREOS": "2"}, {"LATITUD": "41.549507", "PROVINCIA": "ZAMORA", "COMUNIDAD": "CASTILLA Y LEON", "LONGITUD": "-5.994012", "IDPIF": "2001490139", "FECHA": "2001-08-07", "TIME_EXT": "0", "PESADOS": "4", "GASTOS_EXT": "0", "TIME_CTRL": "0", "PERSONAL": "65", "SUPQUEMADA": "177.3", "HERIDOS": "0", "IDGRUPOCAUSA": "4", "COMARCA": "ALCA\u00c3\u2018ICES", "CAUSA": "Sin datos", "MUERTOS": "0", "PERDIDAS": "0", "MUNICIPIO": "MUELAS DEL PAN", "AEREOS": "7"}, {"LATITUD": "42.585385", "PROVINCIA": "LEON", "COMUNIDAD": "CASTILLA Y LEON", "LONGITUD": "-6.465063", "IDPIF": "2008240447", "FECHA": "2008-08-13", "TIME_EXT": "1714", "PESADOS": "6", "GASTOS_EXT": "0", "TIME_CTRL": "411", "PERSONAL": "103", "SUPQUEMADA": "177.25", "HERIDOS": "0", "IDGRUPOCAUSA": "2", "COMARCA": "BEMBIBRE", "CAUSA": "QUEMA PARA REG. PASTOS (OTRAS QUEMAS PARA PASTOS)", "MUERTOS": "0", "PERDIDAS": "0", "MUNICIPIO": "CASTROPODAME", "AEREOS": "8"}, {"LATITUD": "41.225947", "PROVINCIA": "SALAMANCA", "COMUNIDAD": "CASTILLA Y LEON", "LONGITUD": "-6.437589", "IDPIF": "2004370047", "FECHA": "2004-06-15", "TIME_EXT": "1470", "PESADOS": "3", "GASTOS_EXT": "0", "TIME_CTRL": "690", "PERSONAL": "36", "SUPQUEMADA": "177.0", "HERIDOS": "0", "IDGRUPOCAUSA": "4", "COMARCA": "VITIGUDINO", "CAUSA": "Sin datos", "MUERTOS": "0", "PERDIDAS": "0", "MUNICIPIO": "VILLARINO DE LOS AIRES", "AEREOS": "1"}, {"LATITUD": "42.576302", "PROVINCIA": "LEON", "COMUNIDAD": "CASTILLA Y LEON", "LONGITUD": "-6.854348", "IDPIF": "2002240085", "FECHA": "2002-03-23", "TIME_EXT": "1350", "PESADOS": "0", "GASTOS_EXT": "0", "TIME_CTRL": "1350", "PERSONAL": "2", "SUPQUEMADA": "176.0", "HERIDOS": "0", "IDGRUPOCAUSA": "2", "COMARCA": "VILLAFRANCA", "CAUSA": "QUEMA PARA REG. PASTOS (SIN ESPECIFICAR)", "MUERTOS": "0", "PERDIDAS": "0", "MUNICIPIO": "CORULLON", "AEREOS": "0"}, {"LATITUD": "41.983484", "PROVINCIA": "ZAMORA", "COMUNIDAD": "CASTILLA Y LEON", "LONGITUD": "-6.68665", "IDPIF": "2002490214", "FECHA": "2002-05-20", "TIME_EXT": "570", "PESADOS": "0", "GASTOS_EXT": "1118", "TIME_CTRL": "540", "PERSONAL": "8", "SUPQUEMADA": "175.0", "HERIDOS": "0", "IDGRUPOCAUSA": "4", "COMARCA": "PUEBLA DE SANABRIA", "CAUSA": "Sin datos", "MUERTOS": "0", "PERDIDAS": "0", "MUNICIPIO": "PEDRALBA DE LA PRADERIA", "AEREOS": "1"}, {"LATITUD": "42.807904", "PROVINCIA": "LEON", "COMUNIDAD": "CASTILLA Y LEON", "LONGITUD": "-6.206098", "IDPIF": "2007240332", "FECHA": "2007-11-17", "TIME_EXT": "0", "PESADOS": "1", "GASTOS_EXT": "0", "TIME_CTRL": "0", "PERSONAL": "20", "SUPQUEMADA": "174.4", "HERIDOS": "0", "IDGRUPOCAUSA": "4", "COMARCA": "CANALES-LA MAGDALENA", "CAUSA": "Provocados por cazadores para facilitar la caza", "MUERTOS": "0", "PERDIDAS": "0", "MUNICIPIO": "MURIAS DE PAREDES", "AEREOS": "1"}, {"LATITUD": "42.733468", "PROVINCIA": "LEON", "COMUNIDAD": "CASTILLA Y LEON", "LONGITUD": "-6.896544", "IDPIF": "2010240021", "FECHA": "2010-03-17", "TIME_EXT": "0", "PESADOS": "0", "GASTOS_EXT": "0", "TIME_CTRL": "0", "PERSONAL": "0", "SUPQUEMADA": "174.37", "HERIDOS": "0", "IDGRUPOCAUSA": "2", "COMARCA": "VILLAFRANCA", "CAUSA": "QUEMA PARA REG. PASTOS (QUEMAS DE MATORRAL)", "MUERTOS": "0", "PERDIDAS": "0", "MUNICIPIO": "BALBOA", "AEREOS": "0"}, {"LATITUD": "41.225947", "PROVINCIA": "SALAMANCA", "COMUNIDAD": "CASTILLA Y LEON", "LONGITUD": "-6.437589", "IDPIF": "2003370124", "FECHA": "2003-08-10", "TIME_EXT": "1177", "PESADOS": "7", "GASTOS_EXT": "0", "TIME_CTRL": "242", "PERSONAL": "91", "SUPQUEMADA": "174.17", "HERIDOS": "0", "IDGRUPOCAUSA": "1", "COMARCA": "VITIGUDINO", "CAUSA": "RAYO", "MUERTOS": "0", "PERDIDAS": "59912", "MUNICIPIO": "VILLARINO DE LOS AIRES", "AEREOS": "3"}, {"LATITUD": "42.546098", "PROVINCIA": "LEON", "COMUNIDAD": "CASTILLA Y LEON", "LONGITUD": "-6.992083", "IDPIF": "2006240502", "FECHA": "2006-09-08", "TIME_EXT": "4252", "PESADOS": "1", "GASTOS_EXT": "0", "TIME_CTRL": "3824", "PERSONAL": "78", "SUPQUEMADA": "171.2", "HERIDOS": "0", "IDGRUPOCAUSA": "1", "COMARCA": "VILLAFRANCA", "CAUSA": "RAYO", "MUERTOS": "0", "PERDIDAS": "0", "MUNICIPIO": "OENCIA", "AEREOS": "7"}, {"LATITUD": "41.13613", "PROVINCIA": "SALAMANCA", "COMUNIDAD": "CASTILLA Y LEON", "LONGITUD": "-6.018007", "IDPIF": "2001370072", "FECHA": "2001-07-31", "TIME_EXT": "420", "PESADOS": "6", "GASTOS_EXT": "0", "TIME_CTRL": "300", "PERSONAL": "51", "SUPQUEMADA": "170.0", "HERIDOS": "0", "IDGRUPOCAUSA": "2", "COMARCA": "SALAMANCA", "CAUSA": "OTRAS NEGLIGENCIAS (SIN ESPECIFICAR)", "MUERTOS": "0", "PERDIDAS": "101713", "MUNICIPIO": "LEDESMA", "AEREOS": "0"}, {"LATITUD": "42.140216", "PROVINCIA": "ZAMORA", "COMUNIDAD": "CASTILLA Y LEON", "LONGITUD": "-6.889577", "IDPIF": "2007490211", "FECHA": "2007-11-02", "TIME_EXT": "1708", "PESADOS": "0", "GASTOS_EXT": "0", "TIME_CTRL": "1458", "PERSONAL": "58", "SUPQUEMADA": "170.0", "HERIDOS": "0", "IDGRUPOCAUSA": "4", "COMARCA": "EL PUENTE", "CAUSA": "Provocados por campesinos para eliminar matorral y residuos agr\u00c3\u00adcolas", "MUERTOS": "0", "PERDIDAS": "0", "MUNICIPIO": "PORTO", "AEREOS": "8"}, {"LATITUD": "42.362076", "PROVINCIA": "LEON", "COMUNIDAD": "CASTILLA Y LEON", "LONGITUD": "-6.674142", "IDPIF": "2009240370", "FECHA": "2009-04-05", "TIME_EXT": "438", "PESADOS": "0", "GASTOS_EXT": "0", "TIME_CTRL": "213", "PERSONAL": "2", "SUPQUEMADA": "170.0", "HERIDOS": "0", "IDGRUPOCAUSA": "2", "COMARCA": "TRUCHAS", "CAUSA": "QUEMA PARA REG. PASTOS (SIN ESPECIFICAR)", "MUERTOS": "0", "PERDIDAS": "0", "MUNICIPIO": "BENUZA", "AEREOS": "0"}, {"LATITUD": "42.059931", "PROVINCIA": "ZAMORA", "COMUNIDAD": "CASTILLA Y LEON", "LONGITUD": "-6.993066", "IDPIF": "2009490239", "FECHA": "2009-03-23", "TIME_EXT": "570", "PESADOS": "0", "GASTOS_EXT": "0", "TIME_CTRL": "480", "PERSONAL": "28", "SUPQUEMADA": "170.0", "HERIDOS": "0", "IDGRUPOCAUSA": "4", "COMARCA": "EL PUENTE", "CAUSA": "Sin datos", "MUERTOS": "0", "PERDIDAS": "0", "MUNICIPIO": "P\u00c3\ufffdAS", "AEREOS": "3"}, {"LATITUD": "42.177579", "PROVINCIA": "ZAMORA", "COMUNIDAD": "CASTILLA Y LEON", "LONGITUD": "-6.896326", "IDPIF": "2011490462", "FECHA": "2011-12-26", "TIME_EXT": "2220", "PESADOS": "0", "GASTOS_EXT": "0", "TIME_CTRL": "1500", "PERSONAL": "0", "SUPQUEMADA": "170.0", "HERIDOS": "0", "IDGRUPOCAUSA": "4", "COMARCA": "EL PUENTE", "CAUSA": "Sin datos", "MUERTOS": "0", "PERDIDAS": "0", "MUNICIPIO": "PORTO", "AEREOS": "0"},